Unnamed: 0,Address,Street Name,Zip Code,City,Country,Latitude,Longitude,Rating,Number of Ratings,Place Name,Place ID,Monday,Tuesday,Wednesday,Thursday,Friday,Saturday,Sunday,Monday_Open,Monday_Close,Tuesday_Open,Tuesday_Close,Wednesday_Open,Wednesday_Close,Thursday_Open,Thursday_Close,Friday_Open,Friday_Close,Saturday_Open,Saturday_Close,Sunday_Open,Sunday_Close,Canton
0,"Bahnhofstrasse 6, 8274 Tägerwilen, Switzerland",Bahnhofstrasse 6,8274,Tägerwilen,Switzerland,47.6565808,9.1330298,4.4,157,Coop Supermarkt Tägerwilen,ChIJVb1KmKL2mkcRN3oXKZB6yvg,Monday,Tuesday,Wednesday,Thursday,Friday,Saturday,,800.0,2000.0,800.0,2000.0,800.0,2000.0,800.0,2000.0,800.0,2000.0,800.0,1800.0,,,Thurgau
1,"Fichtenstrasse 18, 8570 Weinfelden, Switzerland",Fichtenstrasse 18,8570,Weinfelden,Switzerland,47.5667616,9.0968241,4.4,931,Coop Supermarkt Weinfelden Thurmarkt,ChIJVQmyMvnxmkcRWbDnUWa1mg8,Monday,Tuesday,Wednesday,Thursday,Friday,Saturday,,800.0,2000.0,800.0,2000.0,800.0,2000.0,800.0,2000.0,800.0,2000.0,800.0,2000.0,,,Thurgau
2,"Schaffhauserstrasse 17, 8500 Frauenfeld, Switzerland",Schaffhauserstrasse 17,8500,Frauenfeld,Switzerland,47.5611899,8.887193899999998,4.2,231,Coop Supermarkt Frauenfeld Fallengatter,ChIJB3AXjfORmkcRPtHDq_ZuFRY,Monday,Tuesday,Wednesday,Thursday,Friday,Saturday,,700.0,2000.0,700.0,2000.0,700.0,2000.0,700.0,2000.0,700.0,2000.0,700.0,1800.0,,,Thurgau
3,"Thundorferstrasse 1, 9548 Matzingen, Switzerland",Thundorferstrasse 1,9548,Matzingen,Switzerland,47.520299,8.9350578,4.2,134,Coop Supermarkt Matzingen,ChIJs3KUagmTmkcR4aTTPwfGX4I,Monday,Tuesday,Wednesday,Thursday,Friday,Saturday,,730.0,1900.0,730.0,1900.0,730.0,1900.0,730.0,1900.0,730.0,1900.0,730.0,1800.0,,,Thurgau
4,"Bahnhofstrasse 13, 8583 Sulgen, Switzerland",Bahnhofstrasse 13,8583,Sulgen,Switzerland,47.54082440000001,9.183431900000002,4.2,110,Coop Supermarkt Sulgen,ChIJk7mAJvbvmkcR85R9yIt_8g0,Monday,Tuesday,Wednesday,Thursday,Friday,Saturday,,730.0,1900.0,730.0,1900.0,730.0,1900.0,730.0,1900.0,730.0,1900.0,730.0,1800.0,,,Thurgau
5,"Zürcherstrasse 138, 8500 Frauenfeld, Switzerland",Zürcherstrasse 138,8500,Frauenfeld,Switzerland,47.5542174,8.8962605,4.3,736,Coop Supermarkt Frauenfeld Schlosspark,ChIJTx_PByGSmkcR6dpf8FAwm2s,Monday,Tuesday,Wednesday,Thursday,Friday,Saturday,,800.0,2000.0,800.0,2000.0,800.0,2000.0,800.0,2000.0,800.0,2000.0,800.0,1800.0,,,Thurgau
6,"Dorfstrasse 11, 9545 Wängi, Switzerland",Dorfstrasse 11,9545,Wängi,Switzerland,47.4977789,8.953597700000001,4.3,116,Coop Supermarkt Wängi,ChIJpfAHqV6TmkcRUv4VvqFa33w,Monday,Tuesday,Wednesday,Thursday,Friday,Saturday,,730.0,1900.0,730.0,1900.0,730.0,1900.0,730.0,1900.0,730.0,1900.0,730.0,1800.0,,,Thurgau
7,"Leubernstrasse 3, 8280 Kreuzlingen, Switzerland",Leubernstrasse 3,8280,Kreuzlingen,Switzerland,47.6384646,9.2021129,4.1,384,Coop Supermarkt Kreuzlingen Ziilcenter,ChIJ2xT0LU73mkcR9aD8VD-XhHo,Monday,Tuesday,Wednesday,Thursday,Friday,Saturday,,800.0,1900.0,800.0,1900.0,800.0,1900.0,800.0,1900.0,800.0,2000.0,800.0,1800.0,,,Thurgau
8,"Wiesentalstrasse 23, 8355 Aadorf, Switzerland",Wiesentalstrasse 23,8355,Aadorf,Switzerland,47.4928318,8.8997998,4.4,366,Coop Supermarkt Aadorf,ChIJQU4ya1WTmkcRQlqLet00lgs,Monday,Tuesday,Wednesday,Thursday,Friday,Saturday,,800.0,2000.0,800.0,2000.0,800.0,2000.0,800.0,2000.0,800.0,2000.0,800.0,1800.0,,,Thurgau
9,"Seestrasse 149, 8266 Steckborn, Switzerland",Seestrasse 149,8266,Steckborn,Switzerland,47.664038,8.9791502,4.3,280,Coop Supermarkt Steckborn,ChIJ7zEdhHaLmkcR5_-6f-U6Igc,Monday,Tuesday,Wednesday,Thursday,Friday,Saturday,,800.0,2000.0,800.0,2000.0,800.0,2000.0,800.0,2000.0,800.0,2000.0,800.0,1800.0,,,Thurgau
10,"Unterdorfstrasse 5, 8370 Sirnach, Switzerland",Unterdorfstrasse 5,8370,Sirnach,Switzerland,47.4629145,8.9963696,3.9,167,Coop Supermarkt Sirnach,ChIJfdILsRHrmkcR2KlNz2T1z7Q,Monday,Tuesday,Wednesday,Thursday,Friday,Saturday,,800.0,1900.0,800.0,1900.0,800.0,1900.0,800.0,1900.0,800.0,1900.0,800.0,1800.0,,,Thurgau
11,"Attikerstrasse 1, 8542 Wiesendangen, Switzerland",Attikerstrasse 1,8542,Wiesendangen,Switzerland,47.5229352,8.787503599999999,4.2,177,Coop Supermarkt Wiesendangen,ChIJ1dSfCaGQmkcRno87iWKCvVg,Monday,Tuesday,Wednesday,Thursday,Friday,Saturday,,730.0,1900.0,730.0,1900.0,730.0,1900.0,730.0,1900.0,730.0,1900.0,730.0,1800.0,,,Zürich
12,"Frauenfelderstrasse 4, 9542 Münchwilen, Switzerland",Frauenfelderstrasse 4,9542,Münchwilen,Switzerland,47.4793586,8.9954223,4.2,376,Coop Supermarkt Münchwilen,ChIJOw8emmjrmkcRELUQgQbJfr8,Monday,Tuesday,Wednesday,Thursday,Friday,Saturday,,700.0,2000.0,700.0,2000.0,700.0,2000.0,700.0,2000.0,700.0,2000.0,700.0,1900.0,,,Thurgau
13,"Bahnhofstrasse 18, 8580 Amriswil, Switzerland",Bahnhofstrasse 18,8580,Amriswil,Switzerland,47.5473328,9.3022052,4.2,405,Coop Supermarkt Amriswil,ChIJ94Bao7P8mkcR9h5opeCDqDQ,Monday,Tuesday,Wednesday,Thursday,Friday,Saturday,,730.0,2000.0,730.0,2000.0,730.0,2000.0,730.0,2000.0,730.0,2000.0,730.0,1800.0,,,Thurgau
14,"Juchstrasse 16, 8500 Frauenfeld, Switzerland",Juchstrasse 16,8500,Frauenfeld,Switzerland,47.56743519999999,8.9064266,4.2,216,Coop Supermarkt Frauenfeld Allmendcenter,ChIJS_I6EQWSmkcR91Sgeect1Ko,Monday,Tuesday,Wednesday,Thursday,Friday,Saturday,,800.0,2000.0,800.0,2000.0,800.0,2000.0,800.0,2000.0,800.0,2000.0,800.0,1800.0,,,Thurgau
15,"Niederbürerstrasse 5, 9220 Bischofszell, Switzerland",Niederbürerstrasse 5,9220,Bischofszell,Switzerland,47.49022559999999,9.2377918,4.3,382,Coop Supermarkt Bischofszell,ChIJC65Em0DkmkcR0Po6sAESyLM,Monday,Tuesday,Wednesday,Thursday,Friday,Saturday,,800.0,2000.0,800.0,2000.0,800.0,2000.0,800.0,2000.0,800.0,2000.0,800.0,1800.0,,,Thurgau
16,"Frauenfelderstrasse 6, 8555 Müllheim, Switzerland",Frauenfelderstrasse 6,8555,Müllheim,Switzerland,47.60159669999999,9.0006948,4.2,214,Coop Supermarkt Müllheim,ChIJeww7PCyNmkcREsdAnOfsiGE,Monday,Tuesday,Wednesday,Thursday,Friday,Saturday,,800.0,1900.0,800.0,1900.0,800.0,1900.0,800.0,1900.0,800.0,1900.0,800.0,1800.0,,,Thurgau
17,"Kaltenbacherstrasse 32, 8260 Stein am Rhein, Switzerland",Kaltenbacherstrasse 32,8260,Stein,Switzerland,47.6530618,8.853229899999999,4.2,337,Coop Supermarkt Stein am Rhein,ChIJLQbylDaPmkcRFJnrjktiN-I,Monday,Tuesday,Wednesday,Thursday,Friday,Saturday,,730.0,2000.0,730.0,2000.0,730.0,2000.0,730.0,2000.0,730.0,2000.0,730.0,1800.0,,,Schaffhausen
18,"Herbergstrasse 12, 9524 Zuzwil, Switzerland",Herbergstrasse 12,9524,Zuzwil,Switzerland,47.4732184,9.1127353,4.4,257,Coop Supermarkt Zuzwil Herbergmarkt,ChIJ_U8K1SnpmkcRcb3a2PJDCDQ,Monday,Tuesday,Wednesday,Thursday,Friday,Saturday,,800.0,1900.0,800.0,1900.0,800.0,1900.0,800.0,1900.0,800.0,2000.0,730.0,1700.0,,,St. Gallen
19,"Thannstrasse 2, 9403 Goldach, Switzerland",Thannstrasse 2,9403,Goldach,Switzerland,47.4793828,9.4698161,4.2,400,Coop Supermarkt Goldach,ChIJ-4xWFo8bm0cRnxkbH_oCRgo,Monday,Tuesday,Wednesday,Thursday,Friday,Saturday,,730.0,1900.0,730.0,1900.0,730.0,1900.0,730.0,1900.0,730.0,2000.0,730.0,1700.0,,,St. Gallen
20,"Via Crappa Grossa 24, 7130 Ilanz, Switzerland",Via Crappa Grossa 24,7130,Ilanz,Switzerland,46.7745918,9.1923234,4.4,500,Coop Supermarkt Ilanz,ChIJh9XYpCPehEcR7EIzDQBGtvE,Monday,Tuesday,Wednesday,Thursday,Friday,Saturday,,800.0,2000.0,800.0,2000.0,800.0,2000.0,800.0,2000.0,800.0,2000.0,800.0,1700.0,,,Graubünden
21,"Kirchstrasse 5, 7402 Bonaduz, Switzerland",Kirchstrasse 5,7402,Bonaduz,Switzerland,46.81195959999999,9.401216799999998,4.2,180,Coop Supermarkt Bonaduz,ChIJEdGZIpfDhEcRauTi6LVQaXY,Monday,Tuesday,Wednesday,Thursday,Friday,Saturday,,800.0,2000.0,800.0,2000.0,800.0,2000.0,800.0,2000.0,800.0,2000.0,800.0,1800.0,,,Graubünden
22,"Quaderstrasse 36, 7000 Chur, Switzerland",Quaderstrasse 36,7000,Chur,Switzerland,46.85213,9.534748000000002,4.4,425,Coop Supermarket Chur Quader,ChIJYw1ExHnHhEcRx3tZWYJFQdo,Monday,Tuesday,Wednesday,Thursday,Friday,Saturday,,800.0,2000.0,800.0,2000.0,800.0,2000.0,800.0,2000.0,800.0,2000.0,800.0,1800.0,,,Graubünden
23,"Wiherwäg 9, 7075 Churwalden, Switzerland",Wiherwäg 9,7075,Churwalden,Switzerland,46.7792251,9.5441638,4.2,261,Coop Supermarkt Churwalden,ChIJ89iaHXW_hEcRgbOIpdo4Eco,Monday,Tuesday,Wednesday,Thursday,Friday,Saturday,Sunday,800.0,1900.0,800.0,1900.0,800.0,1900.0,800.0,1900.0,800.0,1900.0,800.0,1800.0,900.0,1800.0,Graubünden
24,"Werkstättestrasse 5, 7302 Landquart, Switzerland",Werkstättestrasse 5,7302,Landquart,Switzerland,46.96678670000001,9.5557609,4.4,566,Coop Supermarkt Landquart,ChIJTYL2j4vJhEcRlDQgJiwfdBc,Monday,Tuesday,Wednesday,Thursday,Friday,Saturday,,730.0,2000.0,730.0,2000.0,730.0,2000.0,730.0,2000.0,730.0,2000.0,730.0,1800.0,,,Graubünden
25,"Via Nova 80, 7017 Flims, Switzerland",Via Nova 80,7017,Flims,Switzerland,46.8337617,9.2823183,4.4,439,Coop Supermarkt Flims Stenna,ChIJXSHKJordhEcR1IwJkBiYHPs,Monday,Tuesday,Wednesday,Thursday,Friday,Saturday,Sunday,800.0,2000.0,800.0,2000.0,800.0,2000.0,800.0,2000.0,800.0,2000.0,800.0,1900.0,800.0,1800.0,Graubünden
26,"Freihofweg 5, 7310 Bad Ragaz, Switzerland",Freihofweg 5,7310,Bad,Switzerland,47.0033865,9.502198000000002,4.3,359,Coop Supermarkt Bad Ragaz,ChIJI7ZdVojLhEcRTdcBHGlSY7I,Monday,Tuesday,Wednesday,Thursday,Friday,Saturday,,730.0,1900.0,730.0,1900.0,730.0,1900.0,730.0,1900.0,730.0,1900.0,730.0,1700.0,,,St. Gallen
27,"Raschärenstrasse 35, 7000 Chur, Switzerland",Raschärenstrasse 35,7000,Chur,Switzerland,46.8469965,9.508286299999998,4.4,601,Coop Supermarkt Chur West,ChIJG7fRdBDHhEcR-gvqGuSomvg,Monday,Tuesday,Wednesday,Thursday,Friday,Saturday,,900.0,2000.0,900.0,2000.0,900.0,2000.0,900.0,2000.0,900.0,2000.0,800.0,1800.0,,,Graubünden
28,"Via Nova 96, 7013 Domat/Ems, Switzerland",Via Nova 96,7013,Domat/Ems,Switzerland,46.8370349,9.452643899999998,4.3,303,Coop Supermarkt Domat-Ems,ChIJS-YtYKTGhEcRT9GEOxAp1w4,Monday,Tuesday,Wednesday,Thursday,Friday,Saturday,,800.0,2000.0,800.0,2000.0,800.0,2000.0,800.0,2000.0,800.0,2000.0,800.0,1830.0,,,Graubünden
29,"Dorfstrasse 2, 7220 Schiers, Switzerland",Dorfstrasse 2,7220,Schiers,Switzerland,46.97005420000001,9.684078899999998,4.3,328,Coop Supermarkt Schiers,ChIJNzI1A_izhEcRZpwNzHSdsWY,Monday,Tuesday,Wednesday,Thursday,Friday,Saturday,,730.0,2000.0,730.0,2000.0,730.0,2000.0,730.0,2000.0,730.0,2000.0,730.0,1800.0,,,Graubünden
30,"Rangsstrasse 33, 7205 Zizers, Switzerland",Rangsstrasse 33,7205,Zizers,Switzerland,46.9407743,9.5678764,4.6,115,Coop Supermarkt Zizers,ChIJ_yKYngTJhEcRQe6B-8pCaGc,Monday,Tuesday,Wednesday,Thursday,Friday,Saturday,,730.0,1930.0,730.0,1930.0,730.0,1930.0,730.0,1930.0,730.0,1930.0,730.0,1800.0,,,Graubünden
31,"Via Sura Hauptstrasse, 7530 Zernez, Switzerland",Via Sura Hauptstrasse,7530,Zernez,Switzerland,46.6998918,10.0935894,4.2,269,Coop Supermarkt Zernez,ChIJOffZBrBCg0cRpMLfdvmWM84,Monday,Tuesday,Wednesday,Thursday,Friday,Saturday,,1400.0,1830.0,1400.0,1830.0,1400.0,1830.0,1400.0,1830.0,1400.0,1830.0,800.0,1700.0,,,Graubünden
32,"Tittwiesenstrasse 66, 7000 Chur, Switzerland",Tittwiesenstrasse 66,7000,Chur,Switzerland,46.85917389999999,9.5268126,4.3,246,Coop Supermarkt Chur Tittwiesen,ChIJrxZYBp_HhEcRGaHzbIjjzNw,Monday,Tuesday,Wednesday,Thursday,Friday,Saturday,,730.0,2000.0,730.0,2000.0,730.0,2000.0,730.0,2000.0,730.0,2000.0,730.0,1800.0,,,Graubünden
33,"Via Acletta 1, 7180 Disentis/Mustér, Switzerland",Via Acletta 1,7180,Disentis/Mustér,Switzerland,46.70005990000001,8.8420308,4.3,317,Coop Supermarkt Disentis,ChIJ5bmZnjkRhUcR2qsofBAAm20,Monday,Tuesday,Wednesday,Thursday,Friday,Saturday,Sunday,800.0,1900.0,800.0,1900.0,800.0,1900.0,800.0,1900.0,800.0,1900.0,800.0,1800.0,900.0,1800.0,Graubünden
34,"Crappun 1, 7503 Samedan, Switzerland",Crappun 1,7503,Samedan,Switzerland,46.5319317,9.8706033,4.3,566,Coop Supermarkt Samedan,ChIJPTsuTB99g0cRXYq7beiv6Eo,Monday,Tuesday,Wednesday,Thursday,Friday,Saturday,Sunday,800.0,1900.0,800.0,1900.0,800.0,1900.0,800.0,1900.0,800.0,1900.0,800.0,1900.0,900.0,1800.0,Graubünden
35,"Kurfirstenstrasse 5, 7000 Chur, Switzerland",Kurfirstenstrasse 5,7000,Chur,Switzerland,46.8575952,9.520246999999998,4.3,251,Coop Supermarkt Chur Kurfirsten,ChIJX_iHj6DHhEcRGI3hko2mg0A,Monday,Tuesday,Wednesday,Thursday,Friday,Saturday,,730.0,2000.0,730.0,2000.0,730.0,2000.0,730.0,2000.0,730.0,2000.0,730.0,1800.0,,,Graubünden
36,"Grossfeldstrasse 63, 8887 Mels, Switzerland",Grossfeldstrasse 63,8887,Mels,Switzerland,47.0405568,9.4353735,4.3,617,Coop Supermarkt Mels Pizolcenter,ChIJcbNKfjjNhEcRg6-m-_34cxs,Monday,Tuesday,Wednesday,Thursday,Friday,Saturday,,800.0,1900.0,800.0,1900.0,800.0,1900.0,800.0,1900.0,800.0,2100.0,800.0,1700.0,,,St. Gallen
37,"Untergassa 2, 7240 Küblis, Switzerland",Untergassa 2,7240,Küblis,Switzerland,46.9141693,9.777806299999998,4.3,137,Coop Supermarkt Küblis,ChIJOdrWxzKuhEcRDpuN0Vu63Q8,Monday,Tuesday,Wednesday,Thursday,Friday,Saturday,,800.0,1900.0,800.0,1900.0,800.0,1900.0,800.0,1900.0,800.0,1900.0,800.0,1900.0,,,Graubünden
38,"Stradun 403A, 7550 Scuol, Switzerland",Stradun 403A,7550,Scuol,Switzerland,46.7952296,10.2952461,4.3,657,Coop Supermarkt Scuol,ChIJSZQEM5lHg0cRqdGTKzQATgc,Monday,Tuesday,Wednesday,Thursday,Friday,Saturday,Sunday,800.0,1900.0,800.0,1900.0,800.0,1900.0,800.0,1900.0,800.0,1900.0,800.0,1900.0,900.0,1800.0,Graubünden
39,"Platz CH, Bahnhofstrasse 1, 7270 Davos, Switzerland",Platz CH,7270,Davos,Switzerland,46.79249249999999,9.8206432,4.4,848,Coop Supermarkt Davos,ChIJJ4mr2_-jhEcRvHk5oRs5weY,Monday,Tuesday,Wednesday,Thursday,Friday,Saturday,Sunday,800.0,2000.0,800.0,2000.0,800.0,2000.0,800.0,2000.0,800.0,2000.0,800.0,1900.0,900.0,1800.0,Graubünden
40,"Zentralstrasse 1, 6003 Luzern, Switzerland",Zentralstrasse 1,6003,Luzern,Switzerland,47.0502592,8.310878599999999,4.2,1984,Coop Supermarkt Luzern Bahnhof,ChIJU45fEIP7j0cRyUaAAbJq9s4,Monday,Tuesday,Wednesday,Thursday,Friday,Saturday,Sunday,600.0,2200.0,600.0,2200.0,600.0,2200.0,600.0,2200.0,600.0,2200.0,600.0,2200.0,700.0,2200.0,Luzern
41,"Zürichstrasse 9, 6004 Luzern, Switzerland",Zürichstrasse 9,6004,Luzern,Switzerland,47.0569359,8.3100434,4.3,638,Coop Supermarkt Luzern Löwencenter,ChIJU45fEIP7j0cRJFohTR48IEY,Monday,Tuesday,Wednesday,Thursday,Friday,Saturday,,730.0,1900.0,730.0,1900.0,730.0,1900.0,730.0,2100.0,730.0,1900.0,730.0,1700.0,,,Luzern
42,"Bruchstrasse 9, 6003 Luzern, Switzerland",Bruchstrasse 9,6003,Luzern,Switzerland,47.0510902,8.2999677,4.0,239,Coop Supermarkt Luzern Kasernenplatz,ChIJU45fEIP7j0cRPft-s55lpYo,Monday,Tuesday,Wednesday,Thursday,Friday,Saturday,,700.0,1900.0,700.0,1900.0,700.0,1900.0,700.0,2000.0,700.0,1900.0,700.0,1700.0,,,Luzern
43,"Winkelriedstrasse 56, 6003 Luzern, Switzerland",Winkelriedstrasse 56,6003,Luzern,Switzerland,47.04647519999999,8.3069624,4.1,370,Coop Supermarkt Luzern Winkelried,ChIJHbOW3KP7j0cRuqxQ_lQD-1Q,Monday,Tuesday,Wednesday,Thursday,Friday,Saturday,,700.0,1900.0,700.0,1900.0,700.0,1900.0,700.0,2000.0,700.0,1900.0,700.0,1700.0,,,Luzern
44,"Maihofstrasse 1, 6004 Luzern, Switzerland",Maihofstrasse 1,6004,Luzern,Switzerland,47.0614381,8.308228600000001,4.1,351,Coop Supermarkt Luzern Schlossberg,ChIJU45fEIP7j0cRVa0uai401L8,Monday,Tuesday,Wednesday,Thursday,Friday,Saturday,,700.0,1900.0,700.0,1900.0,700.0,1900.0,700.0,1900.0,700.0,2000.0,700.0,1700.0,,,Luzern
45,"Hirschmattstrasse 15, 6003 Luzern, Switzerland",Hirschmattstrasse 15,6003,Luzern,Switzerland,47.0485562,8.306678600000001,4.0,167,Coop Supermarkt Hirschmatt Luzern,ChIJv_239KH7j0cRKkU2GM05ev4,Monday,Tuesday,Wednesday,Thursday,Friday,Saturday,,630.0,1900.0,630.0,1900.0,630.0,1900.0,630.0,2000.0,630.0,1900.0,630.0,1700.0,,,Luzern
46,"Rössligasse 18, 6004 Luzern, Switzerland",Rössligasse 18,6004,Luzern,Switzerland,47.0521558,8.3039246,4.3,1296,Coop City Luzern,ChIJHd_9s5_7j0cR-2OXgRWeqbw,Monday,Tuesday,Wednesday,Thursday,Friday,Saturday,,900.0,1900.0,900.0,1900.0,900.0,1900.0,900.0,2000.0,900.0,1900.0,800.0,1700.0,,,Luzern
47,"Breitenlachenstrasse 20, 6005 Luzern, Switzerland",Breitenlachenstrasse 20,6005,Luzern,Switzerland,47.03735029999999,8.308567799999999,4.1,163,Coop Supermarkt Luzern Hubelmatt,ChIJHcqJNK77j0cRO2fhuEOIJJk,Monday,Tuesday,Wednesday,Thursday,Friday,Saturday,,730.0,1900.0,730.0,1900.0,730.0,1900.0,730.0,1900.0,730.0,1900.0,730.0,1700.0,,,Luzern
48,"Luzernerstrasse 88, 6014 Luzern, Switzerland",Luzernerstrasse 88,6014,Luzern,Switzerland,47.05114140000001,8.2712765,4.1,235,Coop Supermarkt Littau,ChIJv6MZyTj7j0cR-Z2UXppLp0o,Monday,Tuesday,Wednesday,Thursday,Friday,Saturday,,730.0,1900.0,730.0,1900.0,730.0,1900.0,730.0,1900.0,730.0,2000.0,730.0,1700.0,,,Luzern
49,"Langensandstrasse 23, 6005 Luzern, Switzerland",Langensandstrasse 23,6005,Luzern,Switzerland,47.03729329999999,8.3283896,4.0,86,Coop Supermarkt Luzern Schönbühl,ChIJlxqlMM_7j0cRa57aBqYOTNs,Monday,Tuesday,Wednesday,Thursday,Friday,Saturday,,830.0,1900.0,830.0,1900.0,830.0,1900.0,830.0,1900.0,830.0,2000.0,800.0,1700.0,,,Luzern
50,"Erlenstrasse 4, 6020 Emmen, Switzerland",Erlenstrasse 4,6020,Emmen,Switzerland,47.0809767,8.271311700000002,4.1,248,Coop Supermarkt Emmenbrücke Sprengi,ChIJnflfzK_8j0cRgJJ8c0VZSkw,Monday,Tuesday,Wednesday,Thursday,Friday,Saturday,,730.0,1900.0,730.0,1900.0,730.0,1900.0,730.0,1900.0,730.0,2000.0,730.0,1700.0,,,Luzern
51,"Rössligasse 20, 6004 Luzern, Switzerland",Rössligasse 20,6004,Luzern,Switzerland,47.052152,8.303858,1.0,1,Coop,ChIJ73vK5RP7j0cRvxeEWINIDF0,,,,,,,,,,,,,,,,,,,,,,Luzern
52,"Hauptstrasse 19, 6015 Luzern, Switzerland",Hauptstrasse 19,6015,Luzern,Switzerland,47.0600349,8.2858764,4.1,174,Coop Pronto Shop mit Tankstelle Reussbühl,ChIJ95M9tmj7j0cRDsZh9CJVbvE,Monday,Tuesday,Wednesday,Thursday,Friday,Saturday,Sunday,600.0,2200.0,600.0,2200.0,600.0,2200.0,600.0,2200.0,600.0,2200.0,600.0,2200.0,600.0,2200.0,Luzern
53,"Zürichstrasse 9, 6004 Luzern, Switzerland",Zürichstrasse 9,6004,Luzern,Switzerland,47.0569637,8.309951299999998,3.9,204,Coop Restaurant Löwencenter LU,ChIJlRS9tp_7j0cRVpANDC0Wdgw,Monday,Tuesday,Wednesday,Thursday,Friday,Saturday,Sunday,730.0,1900.0,730.0,1900.0,730.0,1900.0,730.0,2100.0,730.0,1900.0,730.0,1700.0,900.0,1700.0,Luzern
54,"Bahnhofpl. 10, 3011 Bern, Switzerland",Bahnhofpl. 10,3011,Bern,Switzerland,46.9485767,7.439675300000001,4.0,695,Coop Supermarkt Bern Bahnhof,ChIJT0WQJb85jkcRG5NEcfiuAjg,Monday,Tuesday,Wednesday,Thursday,Friday,Saturday,Sunday,600.0,2300.0,600.0,2300.0,600.0,2300.0,600.0,2300.0,600.0,2300.0,600.0,2300.0,700.0,2300.0,Bern
55,"Spitalgasse 2, 3011 Bern, Switzerland",Spitalgasse 2,3011,Bern,Switzerland,46.94839320000001,7.443368899999999,4.1,352,Coop Supermarkt Bern Spitalgasse,ChIJJc4ktMA5jkcRAlwYbJZIGrI,Monday,Tuesday,Wednesday,Thursday,Friday,Saturday,,700.0,1900.0,700.0,1900.0,700.0,1900.0,700.0,2000.0,700.0,1900.0,700.0,1800.0,,,Bern
56,"Spitalgasse 37, 3011 Bern, Switzerland",Spitalgasse 37,3011,Bern,Switzerland,46.947652,7.4416683,3.7,90,Coop Supermarkt Bern Schauplatzgasse,ChIJS5-mr7g5jkcRU7Lswqhi39M,Monday,Tuesday,Wednesday,Thursday,Friday,Saturday,,630.0,2000.0,630.0,2000.0,630.0,2000.0,630.0,2000.0,630.0,2000.0,700.0,1800.0,,,Bern
57,"Marktgasse 24, 3011 Bern, Switzerland",Marktgasse 24,3011,Bern,Switzerland,46.9480667,7.446038100000001,4.3,1051,Coop Marktgasse,ChIJDWE3MsE5jkcRmLl_G9-wQtI,Monday,Tuesday,Wednesday,Thursday,Friday,Saturday,,700.0,1900.0,700.0,1900.0,700.0,1900.0,700.0,2000.0,700.0,2000.0,700.0,1800.0,,,Bern
58,"Bahnhofpl. 10A, 3011 Bern, Switzerland",Bahnhofpl. 10A,3011,Bern,Switzerland,46.9492186,7.4401142,4.1,21,Coop,ChIJVShlML85jkcRaehxPlSaF_g,Monday,Tuesday,Wednesday,Thursday,Friday,Saturday,Sunday,530.0,2100.0,530.0,2100.0,530.0,2100.0,530.0,2100.0,530.0,2100.0,530.0,2100.0,700.0,2100.0,Bern
59,"Eigerstrasse 60, 3007 Bern, Switzerland",Eigerstrasse 60,3007,Bern,Switzerland,46.9394781,7.436982200000001,4.1,244,Coop Supermarkt Bern Sulgenbach,ChIJQ0XZqbE5jkcRJfIfxsZw2JA,Monday,Tuesday,Wednesday,Thursday,Friday,Saturday,,700.0,2000.0,700.0,2000.0,700.0,2000.0,700.0,2000.0,700.0,2000.0,700.0,1700.0,,,Bern
60,"Brunnmattstrasse 20, 3007 Bern, Switzerland",Brunnmattstrasse 20,3007,Bern,Switzerland,46.94536040000001,7.426693500000001,4.1,440,Coop Supermarkt Bern Brunnmatt,ChIJLacWC6U5jkcRM69iN2mbakA,Monday,Tuesday,Wednesday,Thursday,Friday,Saturday,,700.0,2000.0,700.0,2000.0,700.0,2000.0,700.0,2000.0,700.0,2000.0,700.0,1700.0,,,Bern
61,"Länggassstrasse 35, 3012 Bern, Switzerland",Länggassstrasse 35,3012,Bern,Switzerland,46.9532912,7.432041000000002,4.4,77,Coop Supermarkt Bern Länggasse,ChIJqVT9hiE5jkcRuBm_T26VII4,Monday,Tuesday,Wednesday,Thursday,Friday,Saturday,,700.0,2000.0,700.0,2000.0,700.0,2000.0,700.0,2000.0,700.0,2100.0,700.0,1700.0,,,Bern
62,"Eigerpl. 5A, 3007 Bern, Switzerland",Eigerpl. 5A,3007,Bern,Switzerland,46.9410978,7.4314747,4.0,319,Coop Supermarkt Bern Eigerplatz,ChIJQ0XZqbE5jkcRfQLSrOBinCg,Monday,Tuesday,Wednesday,Thursday,Friday,Saturday,,700.0,2000.0,700.0,2000.0,700.0,2000.0,700.0,2000.0,700.0,2000.0,700.0,1700.0,,,Bern
63,"Schanzenstrasse 4, 3008 Bern, Switzerland",Schanzenstrasse 4,3008,Bern,Switzerland,46.9490455,7.4375772,4.3,328,Coop Supermarkt Bern Postparc,ChIJ1Qf72r45jkcRtrqDb9-hTls,Monday,Tuesday,Wednesday,Thursday,Friday,Saturday,,600.0,2000.0,600.0,2000.0,600.0,2000.0,600.0,2000.0,600.0,2000.0,700.0,1800.0,,,Bern
64,"Viktoriastrasse 21, 3013 Bern, Switzerland",Viktoriastrasse 21,3013,Bern,Switzerland,46.9534179,7.4584725,4.3,128,Coop Supermarkt Bern Schönburg,ChIJoymZ9XA5jkcR7AF5zTkqq5k,Monday,Tuesday,Wednesday,Thursday,Friday,Saturday,,730.0,2000.0,730.0,2000.0,730.0,2000.0,730.0,2000.0,730.0,2000.0,700.0,1700.0,,,Bern
65,"Trüsselstrasse 4a, 3014 Bern, Switzerland",Trüsselstrasse 4a,3014,Bern,Switzerland,46.9680249,7.464756800000001,4.1,32,Coop Supermarkt Bern Wankdorf TRIO,ChIJbTm3bXI5jkcRMRuB-uPL-qo,Monday,Tuesday,Wednesday,Thursday,Friday,Saturday,,700.0,1900.0,700.0,1900.0,700.0,1900.0,700.0,1900.0,700.0,1900.0,700.0,1700.0,,,Bern
66,"Zähringerstrasse 63, 3012 Bern, Switzerland",Zähringerstrasse 63,3012,Bern,Switzerland,46.9563763,7.432051699999999,4.2,85,Coop Supermarkt Bern Zähringerstrasse,ChIJK2XO05k5jkcRjDJ74V2k53M,Monday,Tuesday,Wednesday,Thursday,Friday,Saturday,,800.0,1900.0,800.0,1900.0,800.0,1900.0,800.0,1900.0,800.0,1900.0,800.0,1700.0,,,Bern
67,"Papiermühlestrasse 85, 3014 Bern, Switzerland",Papiermühlestrasse 85,3014,Bern,Switzerland,46.96346980000001,7.465236599999998,4.4,851,Coop Supermarkt Bern Wankdorf Center,ChIJv4vf9fw5jkcRCTYHgonk1Z0,Monday,Tuesday,Wednesday,Thursday,Friday,Saturday,,800.0,2000.0,800.0,2000.0,800.0,2000.0,800.0,2000.0,800.0,2100.0,800.0,1700.0,,,Bern
68,"Weltpoststrasse 20, 3015 Bern, Switzerland",Weltpoststrasse 20,3015,Bern,Switzerland,46.937673,7.476713599999999,4.0,122,Coop Supermarkt Bern Egghölzli,ChIJE_o-7HA3jkcRGKvHu3344w4,Monday,Tuesday,Wednesday,Thursday,Friday,Saturday,,700.0,1900.0,700.0,1900.0,700.0,1900.0,700.0,1900.0,700.0,1900.0,700.0,1700.0,,,Bern
69,"Brünnenstrasse 118, 3018 Bern, Switzerland",Brünnenstrasse 118,3018,Bern,Switzerland,46.9414676,7.391588599999999,4.3,669,Coop Supermarkt Bern Bümpliz,ChIJlWd_iyE5jkcRMVi8P_xcJLk,Monday,Tuesday,Wednesday,Thursday,Friday,Saturday,,800.0,1900.0,800.0,1900.0,800.0,1900.0,800.0,1900.0,800.0,2100.0,730.0,1700.0,,,Bern
70,"Marktgasse 24, 3011 Bern, Switzerland",Marktgasse 24,3011,Bern,Switzerland,46.9480667,7.446038100000001,4.5,11,Coop Supermarkt Bern Marktgasse,ChIJsxe-OHw5jkcRSwNqSIewg3Y,Monday,Tuesday,Wednesday,Thursday,Friday,Saturday,,700.0,1900.0,700.0,1900.0,700.0,1900.0,700.0,2000.0,700.0,2000.0,700.0,1800.0,,,Bern
71,"Genossenweg 1, 3012 Bern, Switzerland",Genossenweg 1,3012,Bern,Switzerland,46.95402,7.4284057,4.2,145,Coop Supermarkt Bern Muesmatt,ChIJwyLcgZg5jkcRpmIQL4pZXWA,Monday,Tuesday,Wednesday,Thursday,Friday,Saturday,,800.0,2000.0,800.0,2000.0,800.0,2000.0,800.0,2000.0,800.0,2000.0,800.0,1700.0,,,Bern
72,"Stauffacherstrasse 2, 3014 Bern, Switzerland",Stauffacherstrasse 2,3014,Bern,Switzerland,46.9591583,7.455070700000001,4.0,486,Coop Supermarkt Bern Breitenrain,ChIJBRTeC-85jkcRhtC1I0Whxvo,Monday,Tuesday,Wednesday,Thursday,Friday,Saturday,,730.0,2000.0,730.0,2000.0,730.0,2000.0,730.0,2000.0,730.0,2000.0,730.0,1700.0,,,Bern
73,"Giacomettistrasse 15, 3006 Bern, Switzerland",Giacomettistrasse 15,3006,Bern,Switzerland,46.94544049999999,7.472764899999999,4.1,173,Coop Supermarkt Bern Freudenberg,ChIJMzwNO2Q3jkcRLT5AeYmxCX8,Monday,Tuesday,Wednesday,Thursday,Friday,Saturday,,800.0,1900.0,800.0,1900.0,800.0,1900.0,800.0,1900.0,800.0,2100.0,800.0,1700.0,,,Bern
74,"Rue de la Madeleine 2, 1964 Conthey, Switzerland",Rue de la Madeleine 2,1964,Conthey,Switzerland,46.2239289,7.296095199999999,4.3,1463,Coop Supermarché Conthey Bassin,ChIJMcNYL7_cjkcRXbU4F925pdY,Monday,Tuesday,Wednesday,Thursday,Friday,Saturday,,830.0,1830.0,830.0,1830.0,830.0,1830.0,830.0,1830.0,830.0,2100.0,800.0,1700.0,,,Valais
75,"Rue du Scex 2, 1950 Sion, Switzerland",Rue du Scex 2,1950,Sion,Switzerland,46.231463,7.3626298,4.2,1760,Coop Supermarché City Sion Food,ChIJbUc8hC_cjkcRxx81YaKeYSo,Monday,Tuesday,Wednesday,Thursday,Friday,Saturday,,800.0,1830.0,800.0,1830.0,800.0,1830.0,800.0,1830.0,800.0,2000.0,800.0,1700.0,,,Valais
76,"Av. de Fully 53, 1920 Martigny, Switzerland",Av. de Fully 53,1920,Martigny,Switzerland,46.1110322,7.075746600000001,4.2,765,Coop Supermarché Martigny Cristal,ChIJvxl6Zi7IjkcRYsOy5vsAe3U,Monday,Tuesday,Wednesday,Thursday,Friday,Saturday,,830.0,1830.0,830.0,1830.0,830.0,1830.0,830.0,1830.0,830.0,2000.0,800.0,1700.0,,,Valais
77,"Relais du, Av. du Grand-Saint-Bernard A9, 1920 Martigny, Switzerland",Relais du,1920,Martigny,Switzerland,46.1269636,7.060506300000001,4.0,102,Coop Supermarché Martigny Relais du St Bernard,ChIJfd8B12O3jkcRce4S95_dgZI,Monday,Tuesday,Wednesday,Thursday,Friday,Saturday,Sunday,600.0,2100.0,600.0,2100.0,600.0,2100.0,600.0,2100.0,600.0,2200.0,600.0,2200.0,600.0,2200.0,Valais
78,"Rte de Savièse 43, 1965 Savièse, Switzerland",Rte de Savièse 43,1965,Savièse,Switzerland,46.2424087,7.340021500000001,4.3,289,Coop Supermarché Savièse,ChIJedzZRrfdjkcRLwRtt8vWfeM,Monday,Tuesday,Wednesday,Thursday,Friday,Saturday,,730.0,1830.0,730.0,1830.0,730.0,1830.0,730.0,1830.0,730.0,1930.0,730.0,1700.0,,,Valais
79,"Rte d'Italie 115, 1958 Uvrier, Switzerland",Rte d'Italie 115,1958,Uvrier,Switzerland,46.25159719999999,7.407996499999999,4.3,940,Coop Supermarché Uvrier,ChIJeecJOkTejkcRDY2yVrOSqpY,Monday,Tuesday,Wednesday,Thursday,Friday,Saturday,,830.0,1830.0,830.0,1830.0,830.0,1830.0,830.0,1830.0,830.0,2000.0,800.0,1700.0,,,Valais
80,"Z.A. Pré Jacquet 1, 1868 Collombey-Muraz, Switzerland",Z.A. Pré Jacquet 1,1868,Collombey-Muraz,Switzerland,46.2648179,6.9535011,4.2,1119,Coop Supermarché Collombey,ChIJ7UAUWuK8jkcRQXFcQL8oq-c,Monday,Tuesday,Wednesday,Thursday,Friday,Saturday,,830.0,1830.0,830.0,1830.0,830.0,1830.0,830.0,1830.0,830.0,2100.0,800.0,1700.0,,,Valais
81,"Rte Cantonale 18, 1964 Conthey, Switzerland",Rte Cantonale 18,1964,Conthey,Switzerland,46.2238875,7.304958699999999,4.1,455,Coop Supermarché Conthey,ChIJE4ar6ZTcjkcRTw1ddiw6Pek,Monday,Tuesday,Wednesday,Thursday,Friday,Saturday,,830.0,1830.0,830.0,1830.0,830.0,1830.0,830.0,1830.0,830.0,2000.0,800.0,1700.0,,,Valais
82,"Rue de la Poste 3, 1920 Martigny, Switzerland",Rue de la Poste 3,1920,Martigny,Switzerland,46.1035194,7.077066200000001,4.2,814,Coop Supermarché Martigny Ville,ChIJtQ57Zc3JjkcR6nr6uko67bE,Monday,Tuesday,Wednesday,Thursday,Friday,Saturday,,800.0,1830.0,800.0,1830.0,800.0,1830.0,800.0,1830.0,800.0,2000.0,800.0,1700.0,,,Valais
83,"Chem. de la Maraîche 33, 1926 Fully, Switzerland",Chem. de la Maraîche 33,1926,Fully,Switzerland,46.1509373,7.145633500000001,4.3,498,Coop Supermarché Fully,ChIJLXtwyBfGjkcR5reY6BRC-zI,Monday,Tuesday,Wednesday,Thursday,Friday,Saturday,,730.0,1830.0,730.0,1830.0,730.0,1830.0,730.0,1830.0,730.0,1930.0,730.0,1700.0,,,Valais
84,"Chem. du Grand'Clos 1, 1896 Vouvry, Switzerland",Chem. du Grand'Clos 1,1896,Vouvry,Switzerland,46.3338026,6.890376799999999,4.1,329,Coop Supermarché Vouvry,ChIJk_jQjvaYjkcRtAAYOmX7jZQ,Monday,Tuesday,Wednesday,Thursday,Friday,Saturday,,730.0,1830.0,730.0,1830.0,730.0,1830.0,730.0,1830.0,730.0,1930.0,730.0,1700.0,,,Valais
85,"Route des Muverans 38, 1911 Leytron, Switzerland",Route des Muverans 38,1911,Leytron,Switzerland,46.2028712,7.1679166,4.2,393,Coop Supermarché Ovronnaz,ChIJTWQcn6TGjkcRNG7AoSMpyRk,Monday,Tuesday,Wednesday,Thursday,Friday,Saturday,Sunday,800.0,1900.0,800.0,1900.0,800.0,1900.0,800.0,1900.0,800.0,1900.0,800.0,1900.0,800.0,1900.0,Valais
86,"Rue de Pré-Giroud 2, 1908 Riddes, Switzerland",Rue de Pré-Giroud 2,1908,Riddes,Switzerland,46.17230550000001,7.221451699999999,4.2,180,Coop Supermarché Riddes,ChIJEYlzPgDFjkcRCTUlR-WceGI,Monday,Tuesday,Wednesday,Thursday,Friday,Saturday,,730.0,1830.0,730.0,1830.0,730.0,1830.0,730.0,1830.0,730.0,1830.0,730.0,1700.0,,,Valais
87,"Rte d'Ayent 19, 1971 Grimisuat, Switzerland",Rte d'Ayent 19,1971,Grimisuat,Switzerland,46.26158530000001,7.387517000000001,4.3,372,Coop Supermarché Grimisuat,ChIJFT3RTQzejkcRp-cDAjghzQ0,Monday,Tuesday,Wednesday,Thursday,Friday,Saturday,,730.0,1830.0,730.0,1830.0,730.0,1830.0,730.0,1830.0,730.0,1930.0,730.0,1700.0,,,Valais
88,"Av. Max Huber 6, 3960 Sierre, Switzerland",Av. Max Huber 6,3960,Sierre,Switzerland,46.2939327,7.534504200000001,4.2,499,Coop Supermarché Sierre,ChIJkSj7Ww4fj0cRLiKQgoGv7co,Monday,Tuesday,Wednesday,Thursday,Friday,Saturday,,800.0,1830.0,800.0,1830.0,800.0,1830.0,800.0,1830.0,800.0,2000.0,800.0,1700.0,,,Valais
89,"Rte de Saillon 2, 1912 Leytron, Switzerland",Rte de Saillon 2,1912,Leytron,Switzerland,46.1857028,7.2077173,4.1,280,Coop Supermarché Leytron,ChIJPzTJVUTEjkcR06NpJxLJEI0,Monday,Tuesday,Wednesday,Thursday,Friday,Saturday,,730.0,1830.0,730.0,1830.0,730.0,1830.0,730.0,1830.0,730.0,1830.0,730.0,1700.0,,,Valais
90,"Av. du Théâtre 17, 1870 Monthey, Switzerland",Av. du Théâtre 17,1870,Monthey,Switzerland,46.2531608,6.9501455,3.8,352,Coop Supermarché Monthey,ChIJO-smne68jkcRYmmIfJjCk_E,Monday,Tuesday,Wednesday,Thursday,Friday,Saturday,,800.0,1830.0,800.0,1830.0,800.0,1830.0,800.0,1830.0,800.0,2000.0,800.0,1700.0,,,Valais
91,"Rue de Gottefrey 27, 1907 Saxon, Switzerland",Rue de Gottefrey 27,1907,Saxon,Switzerland,46.149135,7.1747255,4.2,263,Coop Supermarché Saxon,ChIJazhu9uTFjkcRrkrCaSnJfCU,Monday,Tuesday,Wednesday,Thursday,Friday,Saturday,,700.0,1830.0,700.0,1830.0,700.0,1830.0,700.0,1830.0,700.0,1830.0,700.0,1700.0,,,Valais
92,"Rue de l'Industrie 16, 1950 Sion, Switzerland",Rue de l'Industrie 16,1950,Sion,Switzerland,46.2261675,7.3607375,4.2,525,Coop Supermarché Sion sous Gare,ChIJ23IyZCPcjkcRvXsCr-KMZd0,Monday,Tuesday,Wednesday,Thursday,Friday,Saturday,,800.0,1830.0,800.0,1830.0,800.0,1830.0,800.0,1830.0,800.0,2000.0,800.0,1700.0,,,Valais
93,"Rte des Lacustres, 3960 Sierre, Switzerland",Rte des Lacustres,3960,Sierre,Switzerland,46.28124070000001,7.512626900000001,4.2,480,Coop Supermarché Sierre Rossfeld,ChIJaUms8pofj0cRRXVUAdZK8SY,Monday,Tuesday,Wednesday,Thursday,Friday,Saturday,,800.0,1830.0,800.0,1830.0,800.0,1830.0,800.0,1830.0,800.0,2000.0,800.0,1700.0,,,Valais
94,"Austrasse 1, 4153 Kanton Reinach, Switzerland",Austrasse 1,4153,Kanton,Switzerland,47.49375,7.593548099999999,4.2,755,Coop Supermarkt Reinach BL,ChIJh5_x7enHkUcRpjcQ4jIy12k,Monday,Tuesday,Wednesday,Thursday,Friday,Saturday,,800.0,2000.0,800.0,2000.0,800.0,2000.0,800.0,2000.0,800.0,2000.0,730.0,2000.0,,,Basel-Stadt
95,"Irene Zurkinden-Platz, 4053 Basel, Switzerland",Irene Zurkinden-Platz,4053,Basel,Switzerland,47.5374254,7.608575199999998,3.8,22,Coop Supermarkt Basel Irene Zurkinden-Platz,ChIJo6A8w125kUcRKC_Fme7tL2s,Monday,Tuesday,Wednesday,Thursday,Friday,Saturday,,700.0,1900.0,700.0,1900.0,700.0,1900.0,700.0,1900.0,700.0,1900.0,800.0,1700.0,,,Basel-Stadt
96,"Obwaldnerstrasse 4, 4055 Basel, Switzerland",Obwaldnerstrasse 4,4055,Basel,Switzerland,47.5602431,7.567515700000001,4.0,204,Coop Supermarkt Basel Helvetiaplatz,ChIJ0a3KYQa5kUcRRNuwJ8MfdWI,Monday,Tuesday,Wednesday,Thursday,Friday,Saturday,,730.0,2000.0,730.0,2000.0,730.0,2000.0,730.0,2000.0,730.0,2000.0,730.0,1800.0,,,Basel-Stadt
97,"Vogesenpl. 10, 4056 Basel, Switzerland",Vogesenpl. 10,4056,Basel,Switzerland,47.5708241,7.573168800000001,4.2,601,Coop Supermarkt Basel Volta Zentrum,ChIJuVbAAA25kUcRewCJuNrRcRw,Monday,Tuesday,Wednesday,Thursday,Friday,Saturday,,730.0,2000.0,730.0,2000.0,730.0,2000.0,730.0,2000.0,730.0,2000.0,730.0,1800.0,,,Basel-Stadt
98,"Centralbahnpl. 4, 4051 Basel, Switzerland",Centralbahnpl. 4,4051,Basel,Switzerland,47.5475421,7.590732199999999,4.1,1223,Coop Supermarkt Basel Bahnhof SBB,ChIJI-rVKE64kUcRyyM0XAtNgjM,Monday,Tuesday,Wednesday,Thursday,Friday,Saturday,Sunday,600.0,2200.0,600.0,2200.0,600.0,2200.0,600.0,2200.0,600.0,2200.0,600.0,2200.0,730.0,2200.0,Basel-Stadt
99,"Hardstrasse 95, 4052 Basel, Switzerland",Hardstrasse 95,4052,Basel,Switzerland,47.5496158,7.6066961,4.1,174,Coop Supermarkt Basel Hardstrasse,ChIJfbluOki4kUcRdU_RFonOSVU,Monday,Tuesday,Wednesday,Thursday,Friday,Saturday,,700.0,1900.0,700.0,1900.0,700.0,1900.0,700.0,1900.0,700.0,1900.0,700.0,1800.0,,,Basel-Stadt
100,"Maulbeerstrasse 31, 4058 Basel, Switzerland",Maulbeerstrasse 31,4058,Basel,Switzerland,47.5672607,7.601070999999999,3.8,143,Coop Supermarkt Basel Mattenstrasse,ChIJ77XBvL65kUcR8XfqrKx5a3E,Monday,Tuesday,Wednesday,Thursday,Friday,Saturday,,730.0,1830.0,730.0,1830.0,730.0,1830.0,730.0,1830.0,730.0,1830.0,730.0,1600.0,,,Basel-Stadt
101,"Steinenring 45, 4051 Basel, Switzerland",Steinenring 45,4051,Basel,Switzerland,47.5512107,7.580382799999999,4.2,360,Coop Supermarkt Basel Bachletten,ChIJfbluOki4kUcRqSIqPm0kNik,Monday,Tuesday,Wednesday,Thursday,Friday,Saturday,,730.0,2000.0,730.0,2000.0,730.0,2000.0,730.0,2000.0,730.0,2000.0,730.0,1800.0,,,Basel-Stadt
102,"Klybeckstrasse 142, 4057 Basel, Switzerland",Klybeckstrasse 142,4057,Basel,Switzerland,47.56907870000001,7.590520100000001,4.2,350,Coop Supermarkt Basel Klybeck,ChIJh_lAsaO5kUcRQicJgqKH77U,Monday,Tuesday,Wednesday,Thursday,Friday,Saturday,,730.0,2000.0,730.0,2000.0,730.0,2000.0,730.0,2000.0,730.0,2000.0,730.0,1800.0,,,Basel-Stadt
103,"Aeschenvorstadt 75, 4051 Basel, Switzerland",Aeschenvorstadt 75,4051,Basel,Switzerland,47.55178919999999,7.594581199999999,4.2,724,Coop Supermarkt Basel Aeschenplatz,ChIJq4G9tUy4kUcRgKCj0d6YY6E,Monday,Tuesday,Wednesday,Thursday,Friday,Saturday,,630.0,2000.0,630.0,2000.0,630.0,2000.0,630.0,2000.0,630.0,2000.0,730.0,1800.0,,,Basel-Stadt
104,"Erlenstrasse 81, 4058 Basel, Switzerland",Erlenstrasse 81,4058,Basel,Switzerland,47.5697173,7.6036642,4.5,281,Coop Supermarkt Basel Erlenmatt,ChIJa5OnNh-5kUcRduTJlYur2SQ,Monday,Tuesday,Wednesday,Thursday,Friday,Saturday,,730.0,2000.0,730.0,2000.0,730.0,2000.0,730.0,2000.0,730.0,2000.0,730.0,1800.0,,,Basel-Stadt
105,"Holeestrasse 159, 4054 Basel, Switzerland",Holeestrasse 159,4054,Basel,Switzerland,47.5465124,7.565072399999999,4.0,353,Coop Supermarkt Basel Neuweilerplatz,ChIJ32CVKfu4kUcR5M2YA0JgSyE,Monday,Tuesday,Wednesday,Thursday,Friday,Saturday,,730.0,2000.0,730.0,2000.0,730.0,2000.0,730.0,2000.0,730.0,2000.0,730.0,1800.0,,,Basel-Stadt
106,"Michelbacherstrasse 6/10, 4055 Basel, Switzerland",Michelbacherstrasse 6/10,4055,Basel,Switzerland,47.56601809999999,7.562158599999999,4.1,211,Coop Supermarkt Basel Michelbacher,ChIJaSR-Ihe5kUcRDnPy_oKWP7c,Monday,Tuesday,Wednesday,Thursday,Friday,Saturday,,730.0,1900.0,730.0,1900.0,730.0,1900.0,730.0,1900.0,730.0,1900.0,730.0,1800.0,,,Basel-Stadt
107,"Hauensteinstrasse 88, 4059 Basel, Switzerland",Hauensteinstrasse 88,4059,Basel,Switzerland,47.534216,7.593167100000001,4.0,88,Coop Supermarkt Basel Hauenstein,ChIJfbluOki4kUcRhGwAtWfY5IY,Monday,Tuesday,Wednesday,Thursday,Friday,Saturday,,730.0,1830.0,730.0,1830.0,730.0,1830.0,730.0,1830.0,730.0,1830.0,730.0,1800.0,,,Basel-Stadt
108,"Missionsstrasse 53, 4055 Basel, Switzerland",Missionsstrasse 53,4055,Basel,Switzerland,47.5607151,7.575606299999999,4.3,757,Coop Supermarkt Basel Spalemärt,ChIJ0a3KYQa5kUcRapsqyAH2dr8,Monday,Tuesday,Wednesday,Thursday,Friday,Saturday,,730.0,2000.0,730.0,2000.0,730.0,2000.0,730.0,2000.0,730.0,2000.0,730.0,1800.0,,,Basel-Stadt
109,"St. Jakobs-Strasse 397, 4052 Basel, Switzerland",St. Jakobs-Strasse 397,4052,Basel,Switzerland,47.5407334,7.6182232,3.7,50,Coop Supermarkt Basel St. Jakob-Park,ChIJRdBteii4kUcRilL149En_JE,Monday,Tuesday,Wednesday,Thursday,Friday,Saturday,,900.0,2000.0,900.0,2000.0,900.0,2000.0,900.0,2000.0,900.0,2000.0,900.0,1800.0,,,Basel-Stadt
110,"Saatlenstrasse 12, 8051 Zürich, Switzerland",Saatlenstrasse 12,8051,Zürich,Switzerland,47.40491829999999,8.5716621,4.0,640,Coop Supermarkt Zürich Schwamendingen,ChIJ-0XXwWGgmkcRUk9DeQ9cDqo,Monday,Tuesday,Wednesday,Thursday,Friday,Saturday,,630.0,2100.0,630.0,2100.0,630.0,2100.0,630.0,2100.0,630.0,2100.0,630.0,2100.0,,,Zürich
111,"Bäumlihofstrasse 132, 4058 Basel, Switzerland",Bäumlihofstrasse 132,4058,Basel,Switzerland,47.56517220000001,7.6179827,4.0,267,Coop Supermarkt Basel Bäumlihof,ChIJAQy8Vdu5kUcRTLLMKqxzPQ0,Monday,Tuesday,Wednesday,Thursday,Friday,Saturday,,730.0,2000.0,730.0,2000.0,730.0,2000.0,730.0,2000.0,730.0,2000.0,730.0,1800.0,,,Basel-Stadt
112,"Hutgasse 19, 4001 Basel, Switzerland",Hutgasse 19,4001,Basel,Switzerland,47.5574986,7.587227799999999,4.3,241,Coop Supermarkt City Basel Marktplatz Food,ChIJOVyon665kUcR_5udmi7hoWg,Monday,Tuesday,Wednesday,Thursday,Friday,Saturday,,830.0,1900.0,830.0,1900.0,830.0,1900.0,830.0,2000.0,830.0,2000.0,830.0,1800.0,,,Basel-Stadt
113,"Elsässerstrasse 36, 4056 Basel, Switzerland",Elsässerstrasse 36,4056,Basel,Switzerland,47.56916510000001,7.579645,4.1,281,Coop Supermarkt Basel Elsässerstrasse,ChIJtaHVtAu5kUcRSkr3Z8OYJ_k,Monday,Tuesday,Wednesday,Thursday,Friday,Saturday,,730.0,2000.0,730.0,2000.0,730.0,2000.0,730.0,2000.0,730.0,2000.0,730.0,1800.0,,,Basel-Stadt
114,"Dornacherstrasse 48, 4500 Solothurn, Switzerland",Dornacherstrasse 48,4500,Solothurn,Switzerland,47.2042274,7.5424271,4.0,315,Coop Supermarkt Solothurn Bahnhof,ChIJGSL84YPXkUcRFeoD8UP78Yw,Monday,Tuesday,Wednesday,Thursday,Friday,Saturday,Sunday,530.0,2200.0,530.0,2200.0,530.0,2200.0,530.0,2200.0,530.0,2200.0,700.0,2200.0,700.0,2200.0,Solothurn
115,"Schanzenstrasse 6, 4500 Solothurn, Switzerland",Schanzenstrasse 6,4500,Solothurn,Switzerland,47.2071493,7.5340574,4.2,500,Coop Supermarkt Solothurn Westring,ChIJtSWDn_jXkUcRNASaK_L6t9s,Monday,Tuesday,Wednesday,Thursday,Friday,Saturday,,800.0,1830.0,800.0,1830.0,800.0,1830.0,800.0,2100.0,800.0,1830.0,730.0,1800.0,,,Solothurn
116,"Rossmarktpl. 19, 4500 Solothurn, Switzerland",Rossmarktpl. 19,4500,Solothurn,Switzerland,47.2045994,7.538396199999998,4.1,312,Coop Supermarkt Solothurn Rosengarten,ChIJRRkHl_7XkUcR7wIY0t1OQAA,Monday,Tuesday,Wednesday,Thursday,Friday,Saturday,,700.0,1830.0,700.0,1830.0,700.0,1830.0,700.0,2000.0,700.0,1830.0,730.0,1800.0,,,Solothurn
117,"Brunngrabenstrasse 2, 4500 Solothurn, Switzerland",Brunngrabenstrasse 2,4500,Solothurn,Switzerland,47.2078911,7.515937099999998,4.1,221,Coop Supermarkt Solothurn Brühl,ChIJ-9UQBQzYkUcRPZOI1e_X2gI,Monday,Tuesday,Wednesday,Thursday,Friday,Saturday,,800.0,1830.0,800.0,1830.0,800.0,1830.0,800.0,1830.0,800.0,1830.0,730.0,1700.0,,,Solothurn
118,"Bielstrasse 50, 4500 Solothurn, Switzerland",Bielstrasse 50,4500,Solothurn,Switzerland,47.21054069999999,7.528024100000001,4.3,127,Coop Pronto Shop mit Tankstelle Solothurn Bielstrasse,ChIJhSDEzfTZkUcR6GqeMn8Tt2o,Monday,Tuesday,Wednesday,Thursday,Friday,Saturday,Sunday,600.0,2300.0,600.0,2300.0,600.0,2300.0,600.0,2300.0,600.0,2300.0,600.0,2300.0,600.0,2300.0,Solothurn
119,"Weissensteinstrasse 16, 4513 Langendorf, Switzerland",Weissensteinstrasse 16,4513,Langendorf,Switzerland,47.2200679,7.515353399999999,4.1,202,Coop Supermarkt Langendorf,ChIJH3C6IRXYkUcRchqD6exBVps,Monday,Tuesday,Wednesday,Thursday,Friday,Saturday,,730.0,1830.0,730.0,1830.0,730.0,1830.0,730.0,1830.0,730.0,2000.0,730.0,1800.0,,,Solothurn
120,"Av. du Chablais 41, 1008 Prilly, Switzerland",Av. du Chablais 41,1008,Prilly,Switzerland,46.5246909,6.6026701,3.9,436,Coop Supermarché Prilly Malley,ChIJIdWNtM4xjEcRjpbIAQY0uD8,Monday,Tuesday,Wednesday,Thursday,Friday,Saturday,,700.0,1900.0,700.0,1900.0,700.0,1900.0,700.0,1900.0,700.0,2000.0,700.0,1800.0,,,Vaud
121,"Chem. de la Bichette 4, 1267 Vich, Switzerland",Chem. de la Bichette 4,1267,Vich,Switzerland,46.4242094,6.2544242,4.1,815,Coop Supermarché Vich,ChIJv2QsQaBEjEcRxrCrvGMXEh8,Monday,Tuesday,Wednesday,Thursday,Friday,Saturday,,730.0,1930.0,730.0,1930.0,730.0,1930.0,730.0,1930.0,730.0,2100.0,730.0,1800.0,,,Vaud
122,"Chem. de Saugy 1, 1023 Crissier, Switzerland",Chem. de Saugy 1,1023,Crissier,Switzerland,46.5452118,6.5697679,4.3,1714,Coop Supermarché Crissier,ChIJGY1j1nMxjEcRuqBQd_wHr7Q,Monday,Tuesday,Wednesday,Thursday,Friday,Saturday,,830.0,1930.0,830.0,1930.0,830.0,1930.0,830.0,1930.0,830.0,2100.0,800.0,1800.0,,,Vaud
123,"Rte de Lausanne 33, 1052 Le Mont-sur-Lausanne, Switzerland",Rte de Lausanne 33,1052,Le,Switzerland,46.5540028,6.634909499999999,4.1,395,Coop Supermarché Le Mont-sur-Lausanne,ChIJbxorCgcujEcR_zaxlsheCiU,Monday,Tuesday,Wednesday,Thursday,Friday,Saturday,,730.0,1900.0,730.0,1900.0,730.0,1900.0,730.0,1900.0,730.0,1900.0,730.0,1800.0,,,Vaud
124,"Rue de la Gare 9, 1373 Chavornay, Switzerland",Rue de la Gare 9,1373,Chavornay,Switzerland,46.7097802,6.5692555,4.2,146,Coop Supermarché Chavornay,ChIJD2LtG-nLjUcR9sL7CSw32Pw,Monday,Tuesday,Wednesday,Thursday,Friday,Saturday,,730.0,1900.0,730.0,1900.0,730.0,1900.0,730.0,1900.0,730.0,1900.0,730.0,1800.0,,,Vaud
125,"La Levratte 22, 1260 Nyon, Switzerland",La Levratte 22,1260,Nyon,Switzerland,46.3879482,6.228508400000001,4.1,377,Coop Supermarché Nyon Levratte,ChIJwZFkCCtDjEcRH0OIwx9cZs8,Monday,Tuesday,Wednesday,Thursday,Friday,Saturday,,730.0,1900.0,730.0,1900.0,730.0,1900.0,730.0,1900.0,730.0,1900.0,730.0,1800.0,,,Vaud
126,"Chem. du Croset 3, 1024 Ecublens, Switzerland",Chem. du Croset 3,1024,Ecublens,Switzerland,46.53412660000001,6.5665274,4.2,989,Coop Supermarché Ecublens,ChIJEYOGRA4xjEcRdmvH0vG7gwk,Monday,Tuesday,Wednesday,Thursday,Friday,Saturday,,800.0,1930.0,800.0,1930.0,800.0,1930.0,800.0,1930.0,800.0,2000.0,800.0,1800.0,,,Vaud
127,"Rue du Pâquis 2, 1033 Cheseaux-sur-Lausanne, Switzerland",Rue du Pâquis 2,1033,Cheseaux-sur-Lausanne,Switzerland,46.5864058,6.604671499999999,3.9,331,Coop Supermarché Cheseaux,ChIJj29brUQyjEcRHOQ8nQYZ-6Y,Monday,Tuesday,Wednesday,Thursday,Friday,Saturday,,730.0,1930.0,730.0,1930.0,730.0,1930.0,730.0,1930.0,730.0,1930.0,730.0,1800.0,,,Vaud
128,"Chem. des Faverges 15, 1006 Lausanne, Switzerland",Chem. des Faverges 15,1006,Lausanne,Switzerland,46.51402809999999,6.647179699999999,3.9,141,Coop Supermarché Lausanne Chissiez,ChIJqV_hCrMvjEcRD6oPCGeEUYE,Monday,Tuesday,Wednesday,Thursday,Friday,Saturday,,730.0,1900.0,730.0,1900.0,730.0,1900.0,730.0,1900.0,730.0,1900.0,730.0,1800.0,,,Vaud
129,"Av. de Morges 60, 1004 Lausanne, Switzerland",Av. de Morges 60,1004,Lausanne,Switzerland,46.526643,6.612506600000001,4.1,465,Coop Supermarché Lausanne Prélaz,ChIJQWPElNAxjEcRLAHHzEnRfcg,Monday,Tuesday,Wednesday,Thursday,Friday,Saturday,,730.0,1900.0,730.0,1900.0,730.0,1900.0,730.0,1900.0,730.0,1900.0,730.0,1800.0,,,Vaud
130,"Rue Caroline 6, 1003 Lausanne, Switzerland",Rue Caroline 6,1003,Lausanne,Switzerland,46.5206955,6.638334400000001,4.1,985,Coop Supermarché Lausanne Caroline,ChIJm5uuAi4ujEcRdV7tDLdiYNc,Monday,Tuesday,Wednesday,Thursday,Friday,Saturday,,730.0,1900.0,730.0,1900.0,730.0,1900.0,730.0,1900.0,730.0,1900.0,730.0,1800.0,,,Vaud
131,"Av. de Chailly 9, 1012 Lausanne, Switzerland",Av. de Chailly 9,1012,Lausanne,Switzerland,46.5258271,6.652152099999999,3.8,242,Coop Supermarché Lausanne Chailly,ChIJn9ZAZEUujEcR1Ngv0d-5bdg,Monday,Tuesday,Wednesday,Thursday,Friday,Saturday,,730.0,1900.0,730.0,1900.0,730.0,1900.0,730.0,1900.0,730.0,1900.0,730.0,1800.0,,,Vaud
132,"Pl. du Marché 1, 1020 Renens, Switzerland",Pl. du Marché 1,1020,Renens,Switzerland,46.5383211,6.581687000000001,4.1,563,Coop Supermarché Renens Centre,ChIJ13ta6qExjEcR8jXQAg4H2QI,Monday,Tuesday,Wednesday,Thursday,Friday,Saturday,,800.0,1900.0,800.0,1900.0,800.0,1900.0,800.0,1900.0,800.0,1900.0,730.0,1700.0,,,Vaud
133,"Rue de la Pontaise 14, 1018 Lausanne, Switzerland",Rue de la Pontaise 14,1018,Lausanne,Switzerland,46.52939869999999,6.6305631,4.0,263,Coop Supermarché Lausanne Pontaise,ChIJL1Nk4SQujEcRrBbdWPU1FB4,Monday,Tuesday,Wednesday,Thursday,Friday,Saturday,,800.0,1900.0,800.0,1900.0,800.0,1900.0,800.0,1900.0,800.0,1900.0,800.0,1800.0,,,Vaud
134,"Rte d'Orbe 4, 1040 Echallens, Switzerland",Rte d'Orbe 4,1040,Echallens,Switzerland,46.6418928,6.6311981,4.1,441,Coop Supermarché Echallens,ChIJo5Hwak_NjUcRlGFU0w7GZRc,Monday,Tuesday,Wednesday,Thursday,Friday,Saturday,,730.0,1900.0,730.0,1900.0,730.0,1900.0,730.0,1900.0,730.0,1900.0,730.0,1800.0,,,Vaud
135,"En Chamard 31, 1442 Montagny-près-Yverdon, Switzerland",En Chamard 31,1442,Montagny-près-Yverdon,Switzerland,46.7900052,6.6205629,4.1,1456,Coop Supermarché Montagny-près-Yverdon,ChIJR_ttzonFjUcRodeqQDrCjRo,Monday,Tuesday,Wednesday,Thursday,Friday,Saturday,,800.0,1900.0,800.0,1900.0,800.0,1900.0,800.0,1900.0,800.0,2000.0,800.0,1800.0,,,Vaud
136,"Chem. d'Entre-Bois 17, 1018 Lausanne, Switzerland",Chem. d'Entre-Bois 17,1018,Lausanne,Switzerland,46.5372957,6.6322216,4.2,270,Coop Supermarché Lausanne Entrebois,ChIJL1Nk4SQujEcRsocIoRv9mSQ,Monday,Tuesday,Wednesday,Thursday,Friday,Saturday,,730.0,1900.0,730.0,1900.0,730.0,1900.0,730.0,1900.0,730.0,1900.0,730.0,1800.0,,,Vaud
137,"Rue Saint-Laurent 24/30, 1003 Lausanne, Switzerland",Rue Saint-Laurent 24/30,1003,Lausanne,Switzerland,46.52274209999999,6.630388799999999,4.1,2769,Coop City Lausanne Au Centre,ChIJm5uuAi4ujEcRdh4SZ1ZxLzA,Monday,Tuesday,Wednesday,Thursday,Friday,Saturday,,800.0,1900.0,800.0,1900.0,800.0,1900.0,800.0,1900.0,800.0,1900.0,800.0,1800.0,,,Vaud
138,"Place de la Sallaz 3, 1010 Lausanne, Switzerland",Place de la Sallaz 3,1010,Lausanne,Switzerland,46.5327115,6.6465473,4.2,515,Coop Supermarché La Sallaz,ChIJpWXD5EAujEcRShheiGG-cNQ,Monday,Tuesday,Wednesday,Thursday,Friday,Saturday,,730.0,1900.0,730.0,1900.0,730.0,1900.0,730.0,1900.0,730.0,1900.0,730.0,1800.0,,,Vaud
139,"Av. de Cour 105, 1007 Lausanne, Switzerland",Av. de Cour 105,1007,Lausanne,Switzerland,46.5159613,6.6136314,3.9,174,Coop Supermarché Lausanne Cour,ChIJn81ACSswjEcRl0hu3l1tpbg,Monday,Tuesday,Wednesday,Thursday,Friday,Saturday,,730.0,1900.0,730.0,1900.0,730.0,1900.0,730.0,1900.0,730.0,1900.0,730.0,1800.0,,,Vaud
140,"Fronwagpl. 1, 8201 Schaffhausen, Switzerland",Fronwagpl. 1,8201,Schaffhausen,Switzerland,47.69634749999999,8.633765,4.2,322,Coop Supermarkt Schaffhausen Fronwagplatz,ChIJrx7HUGd_kEcR3u5vLjoYip4,Monday,Tuesday,Wednesday,Thursday,Friday,Saturday,,730.0,2000.0,730.0,2000.0,730.0,2000.0,730.0,2000.0,730.0,2000.0,730.0,1800.0,,,Schaffhausen
141,"Rietstrasse 169, 8200 Schaffhausen, Switzerland",Rietstrasse 169,8200,Schaffhausen,Switzerland,47.7039121,8.615565499999997,4.2,170,Coop Supermarkt Schaffhausen Riet,ChIJX7NrDhN_kEcRi2PvJFX4YKQ,Monday,Tuesday,Wednesday,Thursday,Friday,Saturday,,730.0,1900.0,730.0,1900.0,730.0,1900.0,730.0,1900.0,730.0,1900.0,730.0,1800.0,,,Schaffhausen
142,"In Gruben 1, 8200 Schaffhausen, Switzerland",In Gruben 1,8200,Schaffhausen,Switzerland,47.70274120000001,8.6459231,4.3,327,Coop Supermarkt Schaffhausen Gruben,ChIJEQrnUtiBmkcRE9aikbPizYc,Monday,Tuesday,Wednesday,Thursday,Friday,Saturday,,730.0,1900.0,730.0,1900.0,730.0,1900.0,730.0,1900.0,730.0,1900.0,730.0,1800.0,,,Schaffhausen
143,"Bahnhofstrasse 29, 8200 Schaffhausen, Switzerland",Bahnhofstrasse 29,8200,Schaffhausen,Switzerland,47.69814150000001,8.632685999999998,4.3,150,Coop Pronto Shop Schaffhausen Bahnhof,ChIJdefwGmd_kEcR_I1n2Ga_Zc4,Monday,Tuesday,Wednesday,Thursday,Friday,Saturday,Sunday,530.0,2300.0,530.0,2300.0,530.0,2300.0,530.0,2300.0,530.0,2300.0,530.0,2300.0,530.0,2300.0,Schaffhausen
144,"Vordergasse 69, 8200 Schaffhausen, Switzerland",Vordergasse 69,8200,Schaffhausen,Switzerland,47.6962488,8.634637,4.2,324,Coop City Schaffhausen,ChIJl5gKrGB_kEcRAPHfwFty-Mk,Monday,Tuesday,Wednesday,Thursday,Friday,Saturday,,830.0,1900.0,830.0,1900.0,830.0,1900.0,830.0,1900.0,830.0,1900.0,800.0,1800.0,,,Schaffhausen
145,"Stüdliackerstrasse 10, 8207 Schaffhausen, Switzerland",Stüdliackerstrasse 10,8207,Schaffhausen,Switzerland,47.72155069999999,8.6660856,4.3,400,Coop Supermarkt Schaffhausen Herblingen,ChIJYdcP2zCAmkcRO4OSLcCCcWM,Monday,Tuesday,Wednesday,Thursday,Friday,Saturday,,830.0,2000.0,830.0,2000.0,830.0,2000.0,830.0,2000.0,830.0,2000.0,800.0,1900.0,,,Schaffhausen
146,"Milchbuckstrasse 1/5, 8057 Zürich, Switzerland",Milchbuckstrasse 1/5,8057,Zürich,Switzerland,47.39567,8.5404066,3.8,441,Coop Supermarkt Zürich Milchbuck,ChIJXU7khXAKkEcRyiofAm8qceM,Monday,Tuesday,Wednesday,Thursday,Friday,Saturday,,730.0,2100.0,730.0,2100.0,730.0,2100.0,730.0,2100.0,730.0,2100.0,730.0,2100.0,,,Zürich
147,"Scheffelstrasse 12, 8037 Zürich, Switzerland",Scheffelstrasse 12,8037,Zürich,Switzerland,47.3938049,8.529575200000002,3.9,337,Coop Supermarkt Zürich Scheffelstrasse,ChIJWcZrL2kKkEcRdFqDH3JcdDE,Monday,Tuesday,Wednesday,Thursday,Friday,Saturday,,700.0,2100.0,700.0,2100.0,700.0,2100.0,700.0,2100.0,700.0,2100.0,700.0,2100.0,,,Zürich
148,"Bahnhofbrücke 1, 8001 Zürich, Switzerland",Bahnhofbrücke 1,8001,Zürich,Switzerland,47.3764584,8.5423575,4.3,3548,Coop Supermarkt Zürich Bahnhofbrücke,ChIJBUuIDAgKkEcR6dqDd_VHtbA,Monday,Tuesday,Wednesday,Thursday,Friday,Saturday,,600.0,2200.0,600.0,2200.0,600.0,2200.0,600.0,2200.0,600.0,2200.0,600.0,2200.0,,,Zürich
149,"Universitätstrasse 101, 8006 Zürich, Switzerland",Universitätstrasse 101,8006,Zürich,Switzerland,47.3839569,8.5480604,3.7,120,Coop Supermarkt Zürich Rigiplatz,ChIJ6UrCT6CgmkcRc66BhyTAc04,Monday,Tuesday,Wednesday,Thursday,Friday,Saturday,,700.0,2100.0,700.0,2100.0,700.0,2100.0,700.0,2100.0,700.0,2100.0,730.0,2100.0,,,Zürich
150,"Halle, Löwenstrasse, 8001 Zürich, Switzerland",Halle,8001,Zürich,Switzerland,47.3778272,8.540286999999998,4.0,1099,Coop,ChIJuQHq4AgKkEcRY14U5w5bJfQ,Monday,Tuesday,Wednesday,Thursday,Friday,Saturday,Sunday,600.0,2200.0,600.0,2200.0,600.0,2200.0,600.0,2200.0,600.0,2200.0,600.0,2200.0,800.0,2200.0,Zürich
151,"Röntgenstrasse 48, 8005 Zürich, Switzerland",Röntgenstrasse 48,8005,Zürich,Switzerland,47.38475269999999,8.527192099999997,4.0,221,Coop Supermarkt Zürich Josefstrasse,ChIJBw6ifhQKkEcRfijxLgDRXOQ,Monday,Tuesday,Wednesday,Thursday,Friday,Saturday,,700.0,2100.0,700.0,2100.0,700.0,2100.0,700.0,2100.0,700.0,2100.0,700.0,2100.0,,,Zürich
152,"Giessereistrasse 18, 8005 Zürich, Switzerland",Giessereistrasse 18,8005,Zürich,Switzerland,47.3907648,8.5182885,4.1,243,Coop Supermarkt Zürich Puls 5,ChIJXWesJkEKkEcRMMVu8fdKVq4,Monday,Tuesday,Wednesday,Thursday,Friday,Saturday,,700.0,2000.0,700.0,2000.0,700.0,2000.0,700.0,2000.0,700.0,2000.0,800.0,1800.0,,,Zürich
153,"Hohlstrasse 35, 8004 Zürich, Switzerland",Hohlstrasse 35,8004,Zürich,Switzerland,47.3771023,8.526500900000002,4.0,389,Coop Supermarkt Zürich Hohlstrasse,ChIJteWyVyIKkEcRed52ybQo6ts,Monday,Tuesday,Wednesday,Thursday,Friday,Saturday,,700.0,2200.0,700.0,2200.0,700.0,2200.0,700.0,2200.0,700.0,2200.0,700.0,2200.0,,,Zürich
154,"Zollstrasse 42, 8005 Zürich, Switzerland",Zollstrasse 42,8005,Zürich,Switzerland,47.38049549999999,8.534856,4.1,153,Coop Supermarkt Zürich Zollstrasse,ChIJycNoXQ4KkEcR9FjkT19AFzw,Monday,Tuesday,Wednesday,Thursday,Friday,Saturday,,630.0,2100.0,630.0,2100.0,630.0,2100.0,630.0,2100.0,630.0,2100.0,700.0,2100.0,,,Zürich
155,"Wallisellenstrasse 1, 8050 Zürich, Switzerland",Wallisellenstrasse 1,8050,Zürich,Switzerland,47.4103731,8.5466843,4.3,1159,Coop Supermarkt City Zürich Oerlikon Food,ChIJB1QWpoYKkEcRgWviq2UyNOk,Monday,Tuesday,Wednesday,Thursday,Friday,Saturday,,800.0,2000.0,800.0,2000.0,800.0,2000.0,800.0,2000.0,800.0,2000.0,800.0,1800.0,,,Zürich
156,"Sophie-Taeuber-Strasse 4, 8050 Zürich, Switzerland",Sophie-Taeuber-Strasse 4,8050,Zürich,Switzerland,47.41348029999999,8.5410152,4.3,790,Coop Supermarkt Zürich Eleven,ChIJW_3Lt6mgmkcRZzq9UZyzvMs,Monday,Tuesday,Wednesday,Thursday,Friday,Saturday,,730.0,2100.0,730.0,2100.0,730.0,2100.0,730.0,2100.0,730.0,2100.0,730.0,2100.0,,,Zürich
157,"Röschibachstrasse 22, 8037 Zürich, Switzerland",Röschibachstrasse 22,8037,Zürich,Switzerland,47.39277389999999,8.524647000000002,3.9,326,Coop Supermarkt Zürich Wipkingerbrücke,ChIJ-Vog-GkKkEcRSpN3HDvClnY,Monday,Tuesday,Wednesday,Thursday,Friday,Saturday,,730.0,2000.0,730.0,2000.0,730.0,2000.0,730.0,2000.0,730.0,2000.0,730.0,2000.0,,,Zürich
158,"Hofwiesenstrasse 370, 8050 Zürich, Switzerland",Hofwiesenstrasse 370,8050,Zürich,Switzerland,47.41119589999999,8.5444925,4.1,441,Coop,ChIJ1WK49PgLkEcRRjRLrDyP_qs,Monday,Tuesday,Wednesday,Thursday,Friday,Saturday,,600.0,2200.0,600.0,2200.0,600.0,2200.0,600.0,2200.0,600.0,2200.0,600.0,2200.0,,,Zürich
159,"Badenerstrasse 333, 8003 Zürich, Switzerland",Badenerstrasse 333,8003,Zürich,Switzerland,47.37771370000001,8.5111012,4.1,846,Coop Supermarkt Zürich Albisriederplatz,ChIJifEbwyQKkEcReeGy5M0-WeE,Monday,Tuesday,Wednesday,Thursday,Friday,Saturday,,700.0,2200.0,700.0,2200.0,700.0,2200.0,700.0,2200.0,700.0,2200.0,700.0,2200.0,,,Zürich
160,"Universitätstrasse 73, 8006 Zürich, Switzerland",Universitätstrasse 73,8006,Zürich,Switzerland,47.3825177,8.548023800000001,3.9,276,Coop Supermarkt Zürich Universitätstrasse,ChIJkzTA46CgmkcRdMqv-tjwERQ,Monday,Tuesday,Wednesday,Thursday,Friday,Saturday,,700.0,2100.0,700.0,2100.0,700.0,2100.0,700.0,2100.0,700.0,2100.0,730.0,2100.0,,,Zürich
161,"Bärengasse 16, 8001 Zürich, Switzerland",Bärengasse 16,8001,Zürich,Switzerland,47.37006189999999,8.537119299999999,4.2,300,Coop Supermarkt Zürich Bärengasse,ChIJJVh4EgEKkEcRbF_BNhkt9yU,Monday,Tuesday,Wednesday,Thursday,Friday,Saturday,,630.0,2000.0,630.0,2000.0,630.0,2000.0,630.0,2000.0,630.0,2000.0,700.0,1700.0,,,Zürich
162,"Schwamendingenstrasse 39, 8050 Zürich, Switzerland",Schwamendingenstrasse 39,8050,Zürich,Switzerland,47.4076242,8.5490836,4.0,287,Coop Supermarkt Zürich Dorflinde,ChIJk3synY8KkEcRPiSd8bYbHLo,Monday,Tuesday,Wednesday,Thursday,Friday,Saturday,,700.0,2000.0,700.0,2000.0,700.0,2000.0,700.0,2000.0,700.0,2000.0,700.0,2000.0,,,Zürich
163,"Bahnhofstrasse 57, 8001 Zürich, Switzerland",Bahnhofstrasse 57,8001,Zürich,Switzerland,47.372955,8.5378441,4.3,3492,Coop Supermarkt City Zürich St. Annahof Food,ChIJXyZCmMILkEcRSFi34qPZI5U,Monday,Tuesday,Wednesday,Thursday,Friday,Saturday,,900.0,2000.0,900.0,2000.0,900.0,2000.0,900.0,2000.0,900.0,2000.0,900.0,2000.0,,,Zürich
164,"Stadelhoferstrasse 10, 8001 Zürich, Switzerland",Stadelhoferstrasse 10,8001,Zürich,Switzerland,47.366789,8.5480012,4.2,797,Coop Supermarkt Zürich Stadelhofen,ChIJe4Xxp-ChmkcRQoDwtFTPTeQ,Monday,Tuesday,Wednesday,Thursday,Friday,Saturday,Sunday,600.0,2200.0,600.0,2200.0,600.0,2200.0,600.0,2200.0,600.0,2200.0,600.0,2200.0,700.0,2200.0,Zürich
165,"Pfingstweidstrasse 106, 8005 Zürich, Switzerland",Pfingstweidstrasse 106,8005,Zürich,Switzerland,47.3911184,8.508009699999999,4.1,245,Coop Supermarkt Zürich Hard Turm Park,ChIJPWPbBkkKkEcR8X-nb94BlVI,Monday,Tuesday,Wednesday,Thursday,Friday,Saturday,,630.0,2100.0,630.0,2100.0,630.0,2100.0,630.0,2100.0,630.0,2100.0,800.0,2100.0,,,Zürich
166,"Bahnhofstrasse 3, 8965 Berikon, Switzerland",Bahnhofstrasse 3,8965,Berikon,Switzerland,47.3617778,8.3678741,4.2,423,Coop Supermarkt Berikon,ChIJyzAVIxUOkEcRlUCgTJt4Dx4,Monday,Tuesday,Wednesday,Thursday,Friday,Saturday,,800.0,2000.0,800.0,2000.0,800.0,2000.0,800.0,2000.0,800.0,2000.0,730.0,2000.0,,,Aargau
167,"Sonnengutstrasse 2, 5620 Bremgarten, Switzerland",Sonnengutstrasse 2,5620,Bremgarten,Switzerland,47.35163379999999,8.3482326,4.2,549,Coop Supermarkt Bremgarten,ChIJS6iK0P8QkEcRnEv7KYoIUAw,Monday,Tuesday,Wednesday,Thursday,Friday,Saturday,,800.0,2000.0,800.0,2000.0,800.0,2000.0,800.0,2000.0,800.0,2000.0,730.0,1800.0,,,Aargau
168,"Bahnhofpl. 3D, 5000 Aarau, Switzerland",Bahnhofpl. 3D,5000,Aarau,Switzerland,47.39170709999999,8.052484999999997,4.0,802,Coop Supermarkt Aarau Bahnhof,ChIJTWydZ-87kEcR-xa9r2Of1f0,Monday,Tuesday,Wednesday,Thursday,Friday,Saturday,Sunday,600.0,2200.0,600.0,2200.0,600.0,2200.0,600.0,2200.0,600.0,2200.0,600.0,2200.0,800.0,2200.0,Aargau
169,"Augustin Keller-Strasse 31, 5600 Lenzburg, Switzerland",Augustin Keller-Strasse 31,5600,Lenzburg,Switzerland,47.3898983,8.1709035,4.3,1010,Coop Supermarkt Lenzburg,ChIJNVzgHwYWkEcRdlP3sqJoMDc,Monday,Tuesday,Wednesday,Thursday,Friday,Saturday,,730.0,2000.0,730.0,2000.0,730.0,2000.0,730.0,2000.0,730.0,2000.0,730.0,2000.0,,,Aargau
170,"Zentrum 2, 5443 Niederrohrdorf, Switzerland",Zentrum 2,5443,Niederrohrdorf,Switzerland,47.4237754,8.305169099999999,4.0,256,Coop Supermarkt Niederrohrdorf,ChIJQXTmgwcTkEcRV--dNn39fGg,Monday,Tuesday,Wednesday,Thursday,Friday,Saturday,,800.0,2000.0,800.0,2000.0,800.0,2000.0,800.0,2000.0,800.0,2000.0,730.0,1900.0,,,Aargau
171,"Seetalstrasse 1, 5630 Muri, Switzerland",Seetalstrasse 1,5630,Muri,Switzerland,47.27284289999999,8.341126899999999,4.3,878,Coop Supermarkt Muri AG,ChIJ5zTNyCIFkEcRCxyUMbBGw_4,Monday,Tuesday,Wednesday,Thursday,Friday,Saturday,,730.0,2000.0,730.0,2000.0,730.0,2000.0,730.0,2000.0,730.0,2000.0,730.0,2000.0,,,Aargau
172,"Poststrasse 1, 5436 Würenlos, Switzerland",Poststrasse 1,5436,Würenlos,Switzerland,47.4431066,8.3623841,4.1,351,Coop Supermarkt Würenlos,ChIJ6505XqESkEcR-sPAQjwEEKc,Monday,Tuesday,Wednesday,Thursday,Friday,Saturday,,730.0,2000.0,730.0,2000.0,730.0,2000.0,730.0,2000.0,730.0,2000.0,730.0,2000.0,,,Aargau
173,"Jurastrasse 42, 5430 Wettingen, Switzerland",Jurastrasse 42,5430,Wettingen,Switzerland,47.4583916,8.329298800000002,4.4,1140,Coop Supermarkt Wettingen Tägipark,ChIJlfH8XNQSkEcRQjO2a8V48x8,Monday,Tuesday,Wednesday,Thursday,Friday,Saturday,,800.0,2000.0,800.0,2000.0,800.0,2000.0,800.0,2000.0,800.0,2000.0,800.0,2000.0,,,Aargau
174,"Bünzweg 2, 5504 Othmarsingen, Switzerland",Bünzweg 2,5504,Othmarsingen,Switzerland,47.40074509999999,8.2155976,4.2,153,Coop Supermarkt Othmarsingen,ChIJ12YNDDIUkEcR-Cj5yMfwE2k,Monday,Tuesday,Wednesday,Thursday,Friday,Saturday,,800.0,1900.0,800.0,1900.0,800.0,1900.0,800.0,1900.0,800.0,1900.0,800.0,1800.0,,,Aargau
175,"Igelweid 10, 5000 Aarau, Switzerland",Igelweid 10,5000,Aarau,Switzerland,47.3915702,8.0458671,4.2,468,Coop City,ChIJB2a_SO87kEcRb1kowJLsRGM,Monday,Tuesday,Wednesday,Thursday,Friday,Saturday,,800.0,1900.0,800.0,1900.0,800.0,1900.0,800.0,1900.0,800.0,1900.0,800.0,1800.0,,,Aargau
176,"Tellistrasse 67, 5004 Aarau, Switzerland",Tellistrasse 67,5004,Aarau,Switzerland,47.3984877,8.0586177,4.2,568,coop supermarkt,ChIJY1CdI_w7kEcR0tfl_PRwnhM,Monday,Tuesday,Wednesday,Thursday,Friday,Saturday,,800.0,2000.0,800.0,2000.0,800.0,2000.0,800.0,2000.0,800.0,2000.0,800.0,2000.0,,,Aargau
177,"Alte Bahnhofstrasse 2, 5610 Wohlen, Switzerland",Alte Bahnhofstrasse 2,5610,Wohlen,Switzerland,47.3502336,8.270475800000002,4.3,641,Coop Supermarkt Wohlen,ChIJNyXWdh8RkEcRp8NCcw8YgR4,Monday,Tuesday,Wednesday,Thursday,Friday,Saturday,,800.0,2000.0,800.0,2000.0,800.0,2000.0,800.0,2000.0,800.0,2000.0,730.0,2000.0,,,Aargau
178,"Shopping-Raststätte A1, 5436 Würenlos, Switzerland",Shopping-Raststätte A1,5436,Würenlos,Switzerland,47.43836,8.34718,4.2,112,Coop Supermarkt Würenlos Autobahnraststätte,ChIJuQdYyz0TkEcRljUbFIfJFLo,Monday,Tuesday,Wednesday,Thursday,Friday,Saturday,Sunday,830.0,2100.0,830.0,2100.0,830.0,2100.0,830.0,2100.0,830.0,2100.0,730.0,2100.0,730.0,2100.0,Aargau
179,"Kuhgässlistrasse 7, 5303 Würenlingen, Switzerland",Kuhgässlistrasse 7,5303,Würenlingen,Switzerland,47.52496800000001,8.2444185,4.3,1449,Coop Supermarkt Würenlingen Aarepark,ChIJQeZ_vEpqkEcRQNsi1-6YbCg,Monday,Tuesday,Wednesday,Thursday,Friday,Saturday,,800.0,2000.0,800.0,2000.0,800.0,2000.0,800.0,2000.0,800.0,2000.0,800.0,2000.0,,,Aargau
180,"Bahnhofstrasse 20, 5605 Dottikon, Switzerland",Bahnhofstrasse 20,5605,Dottikon,Switzerland,47.3815232,8.2391242,4.1,271,Coop Supermarkt Dottikon,ChIJd6cSqaUWkEcRi2yTXADSa4s,Monday,Tuesday,Wednesday,Thursday,Friday,Saturday,,730.0,1900.0,730.0,1900.0,730.0,1900.0,730.0,1900.0,730.0,1900.0,730.0,1800.0,,,Aargau
181,"Dorfpl. 1, 5612 Villmergen, Switzerland",Dorfpl. 1,5612,Villmergen,Switzerland,47.34690920000001,8.2448201,4.0,330,Coop Supermarkt Villmergen,ChIJm_ioJNUQkEcRW-9tr_2uZ7I,Monday,Tuesday,Wednesday,Thursday,Friday,Saturday,,800.0,2000.0,800.0,2000.0,800.0,2000.0,800.0,2000.0,800.0,2000.0,730.0,2000.0,,,Aargau
182,"Hauserstrasse 43, 5210 Windisch, Switzerland",Hauserstrasse 43,5210,Windisch,Switzerland,47.4744566,8.213286499999997,4.0,189,Coop Supermarkt Windisch Hauserstrasse,ChIJU6_U4stqkEcRPS3KTzU21mo,Monday,Tuesday,Wednesday,Thursday,Friday,Saturday,,800.0,1900.0,800.0,1900.0,800.0,1900.0,800.0,1900.0,800.0,1900.0,800.0,1800.0,,,Aargau
183,"Hauserstrasse 1, 5242 Lupfig, Switzerland",Hauserstrasse 1,5242,Lupfig,Switzerland,47.4492263,8.2149276,4.2,985,Coop Supermarkt Lupfig,ChIJAQ59ehgVkEcRmRIUxwwI2mI,Monday,Tuesday,Wednesday,Thursday,Friday,Saturday,,800.0,2000.0,800.0,2000.0,800.0,2000.0,800.0,2000.0,800.0,2000.0,800.0,2000.0,,,Aargau
184,"Langhaus 5, 5400 Baden, Switzerland",Langhaus 5,5400,Baden,Switzerland,47.4766804,8.306975600000001,4.2,1138,Coop Supermarkt Baden Bahnhof,ChIJxReABcdskEcRjpW5Fsh9OWA,Monday,Tuesday,Wednesday,Thursday,Friday,Saturday,Sunday,600.0,2100.0,600.0,2100.0,600.0,2100.0,600.0,2100.0,600.0,2100.0,600.0,2100.0,800.0,2000.0,Aargau
185,"Bahnhofstrasse 28, 5400 Baden, Switzerland",Bahnhofstrasse 28,5400,Baden,Switzerland,47.4758225,8.3079958,4.1,564,Coop Supermarkt City Baden Food,ChIJD0IBEMdskEcRAK5lMn48hsI,Monday,Tuesday,Wednesday,Thursday,Friday,Saturday,,830.0,1900.0,830.0,1900.0,830.0,2000.0,830.0,1900.0,830.0,1900.0,800.0,1800.0,,,Aargau
186,"Hellgasse 3, 6460 Altdorf, Switzerland",Hellgasse 3,6460,Altdorf,Switzerland,46.881008,8.6457131,4.2,296,Coop Supermarkt Altdorf,ChIJFzgumIVDhUcRdZ22XOc9BKQ,Monday,Tuesday,Wednesday,Thursday,Friday,Saturday,,730.0,1830.0,730.0,1830.0,730.0,1830.0,730.0,1830.0,730.0,2100.0,730.0,1700.0,,,Uri
187,"Vordere Hofstatt 4, 6472 Erstfeld, Switzerland",Vordere Hofstatt 4,6472,Erstfeld,Switzerland,46.8243562,8.649029999999998,4.3,233,Coop Supermarkt Erstfeld,ChIJ_ZKWthZChUcRn1W25waIFHo,Monday,Tuesday,Wednesday,Thursday,Friday,Saturday,,730.0,1830.0,730.0,1830.0,730.0,1830.0,730.0,1830.0,730.0,2000.0,730.0,1700.0,,,Uri
188,"Militärstrasse 9A, 6467 Schattdorf, Switzerland",Militärstrasse 9A,6467,Schattdorf,Switzerland,46.85523479999999,8.645036,4.2,216,Coop Supermarkt Schattdorf Tellpark,ChIJQ1DvLbFDhUcRBzoSiqY-w6k,Monday,Tuesday,Wednesday,Thursday,Friday,Saturday,,800.0,1830.0,800.0,1830.0,800.0,1830.0,800.0,1830.0,800.0,2000.0,800.0,1700.0,,,Uri
189,"Dorfstrasse 5, 6467 Schattdorf, Switzerland",Dorfstrasse 5,6467,Schattdorf,Switzerland,46.8655174,8.654784400000002,4.3,78,Coop Supermarkt Schattdorf,ChIJfabnecBDhUcRzSYBPOvw0bc,Monday,Tuesday,Wednesday,Thursday,Friday,Saturday,,730.0,1830.0,730.0,1830.0,730.0,1830.0,730.0,1830.0,730.0,1830.0,730.0,1700.0,,,Uri
190,"Bahnhofpl. 2, 6460 Altdorf, Switzerland",Bahnhofpl. 2,6460,Altdorf,Switzerland,46.876444,8.631376900000001,4.1,182,Coop Pronto Shop Altdorf Bahnhof,ChIJY1nDTXZDhUcRm2xhMGcI1H4,Monday,Tuesday,Wednesday,Thursday,Friday,Saturday,Sunday,500.0,2300.0,500.0,2300.0,500.0,2300.0,500.0,2300.0,500.0,2300.0,500.0,2300.0,500.0,2300.0,Uri
191,"Gotthardstrasse 2, 6467 Schattdorf, Switzerland",Gotthardstrasse 2,6467,Schattdorf,Switzerland,46.8698303,8.6508315,4.2,167,Coop Pronto Shop mit Tankstelle Altdorf Schattdorf,ChIJm_MsxpVDhUcR7vJzTVoqt8Y,Monday,Tuesday,Wednesday,Thursday,Friday,Saturday,Sunday,530.0,2230.0,530.0,2230.0,530.0,2230.0,530.0,2230.0,530.0,2230.0,530.0,2230.0,530.0,2230.0,Uri
192,"Oberer Steisteg 2, 6430 Schwyz, Switzerland",Oberer Steisteg 2,6430,Schwyz,Switzerland,47.0202152,8.6516214,4.4,228,Coop Supermarkt Schwyz,ChIJEXUhzThOhUcRVhsvT4xle_k,Monday,Tuesday,Wednesday,Thursday,Friday,Saturday,,730.0,1900.0,730.0,1900.0,730.0,1900.0,730.0,1900.0,730.0,1900.0,730.0,1800.0,,,Schwyz
193,"Bahnhofstrasse 36, 6440 Brunnen SZ, Switzerland",Bahnhofstrasse 36,6440,Brunnen,Switzerland,46.99646559999999,8.6073306,4.3,454,Coop Supermarkt Brunnen,ChIJo4dg8TpQhUcRAxcGIqhoq1o,Monday,Tuesday,Wednesday,Thursday,Friday,Saturday,,730.0,2000.0,730.0,2000.0,730.0,2000.0,730.0,2000.0,730.0,2000.0,730.0,2000.0,,,Solothurn
194,"Centralstrasse 5, 6410 Arth, Switzerland",Centralstrasse 5,6410,Arth,Switzerland,47.0504381,8.5503426,4.3,313,Coop Supermarkt Goldau,ChIJKzczN1ZRhUcRH-_JbEm4rUM,Monday,Tuesday,Wednesday,Thursday,Friday,Saturday,,730.0,2000.0,730.0,2000.0,730.0,2000.0,730.0,2000.0,730.0,2000.0,730.0,2000.0,,,Schwyz
195,"Luzernerstrasse 38, 6353 Weggis, Switzerland",Luzernerstrasse 38,6353,Weggis,Switzerland,47.0335798,8.4266366,4.3,114,Coop Supermarkt Weggis,ChIJAZwQNS75j0cRRSNLfElNkow,Monday,Tuesday,Wednesday,Thursday,Friday,Saturday,,730.0,1900.0,730.0,1900.0,730.0,1900.0,730.0,1900.0,730.0,1900.0,730.0,1700.0,,,Luzern
196,"Bahnhofstrasse 1, 6410 Goldau, Switzerland",Bahnhofstrasse 1,6410,Goldau,Switzerland,47.0491063,8.5495994,4.1,984,Coop Supermarkt Goldau Bahnhof,ChIJ6a3WX1ZRhUcRmLGhzm2XlOE,Monday,Tuesday,Wednesday,Thursday,Friday,Saturday,Sunday,600.0,2200.0,600.0,2200.0,600.0,2200.0,600.0,2200.0,600.0,2200.0,600.0,2200.0,700.0,2200.0,Schwyz
197,"Bahnhofstrasse 46, 6440 Brunnen SZ, Switzerland",Bahnhofstrasse 46,6440,Brunnen,Switzerland,46.9993699,8.610096400000002,4.5,141,Coop Pronto Shop Brunnen Bahnhof,ChIJ43SkJDBQhUcRGA1eFfemWDc,Monday,Tuesday,Wednesday,Thursday,Friday,Saturday,Sunday,500.0,2300.0,500.0,2300.0,500.0,2300.0,500.0,2300.0,500.0,2300.0,500.0,2300.0,500.0,2300.0,Solothurn
198,"Hinterbergstrasse 6A, 6318 Walchwil, Switzerland",Hinterbergstrasse 6A,6318,Walchwil,Switzerland,47.0990936,8.5174278,4.4,24,Coop Supermarkt Walchwil,ChIJYWbhBMRVhUcRMHi9mC7biyA,Monday,Tuesday,Wednesday,Thursday,Friday,Saturday,,700.0,1900.0,700.0,1900.0,700.0,1900.0,700.0,1900.0,700.0,1900.0,730.0,1700.0,,,Zug
199,"Steinbislin 3, 6423 Seewen, Switzerland",Steinbislin 3,6423,Seewen,Switzerland,47.0326829,8.628576500000001,4.2,170,Coop Pronto Shop mit Tankstelle Seewen Steinbislin,ChIJsTO4K-BRhUcRYLxaTqGGlyo,Monday,Tuesday,Wednesday,Thursday,Friday,Saturday,Sunday,530.0,2200.0,530.0,2200.0,530.0,2200.0,530.0,2200.0,530.0,2200.0,530.0,2200.0,530.0,2200.0,Schwyz
200,"Nähseydi 6, 6374 Buochs, Switzerland",Nähseydi 6,6374,Buochs,Switzerland,46.9791833,8.416130299999999,4.3,477,Coop Supermarkt Buochs,ChIJjbg8dPn3j0cRbzb8xG-6CGU,Monday,Tuesday,Wednesday,Thursday,Friday,Saturday,,730.0,2000.0,730.0,2000.0,730.0,2000.0,730.0,2000.0,730.0,2000.0,730.0,2000.0,,,Nidwalden
201,"Via S. Gottardo 41, 6780 Airolo, Switzerland",Via S. Gottardo 41,6780,Airolo,Switzerland,46.5284291,8.6106924,4.2,150,Coop Supermercato Airolo,ChIJk8WGLKR1hUcR48ayLz4M-hY,Monday,Tuesday,Wednesday,Thursday,Friday,Saturday,,800.0,1900.0,800.0,1900.0,800.0,1900.0,800.0,1900.0,800.0,1900.0,800.0,1830.0,,,Ticino
202,"Bahnhofstrasse 156, 6423 Seewen, Switzerland",Bahnhofstrasse 156,6423,Seewen,Switzerland,47.0279307,8.6315393,4.2,190,Coop Pronto Shop mit Tankstelle Seewen Bahnhofstrasse,ChIJDc1hKeBRhUcRDZw1Q9s6JYY,Monday,Tuesday,Wednesday,Thursday,Friday,Saturday,Sunday,600.0,2200.0,600.0,2200.0,600.0,2200.0,600.0,2200.0,600.0,2200.0,600.0,2200.0,600.0,2200.0,Schwyz
203,"Gotthardstrasse 30, 6490 Andermatt, Switzerland",Gotthardstrasse 30,6490,Andermatt,Switzerland,46.6345109,8.596472200000001,4.2,597,Coop Supermarkt Andermatt,ChIJk0Zti41xhUcRTSbk91zuGXo,Monday,Tuesday,Wednesday,Thursday,Friday,Saturday,,730.0,1830.0,730.0,1830.0,730.0,1830.0,730.0,1830.0,730.0,1830.0,730.0,1800.0,,,Uri
204,"Molliserstrasse 41, 8754 Netstal, Switzerland",Molliserstrasse 41,8754,Netstal,Switzerland,47.0678935,9.058626899999998,4.3,539,Coop Supermarkt Netstal Wiggispark,ChIJ94tn8xQthUcRpvpnsCb7T0s,Monday,Tuesday,Wednesday,Thursday,Friday,Saturday,,800.0,2000.0,800.0,2000.0,800.0,2000.0,800.0,2000.0,800.0,2000.0,800.0,1900.0,,,Glarus
205,"Titliszentrum 5, 6390 Engelberg, Switzerland",Titliszentrum 5,6390,Engelberg,Switzerland,46.820588,8.4047017,4.2,734,Coop,ChIJfY7qB3NghUcR3CsHwwrQo2w,Monday,Tuesday,Wednesday,Thursday,Friday,Saturday,Sunday,730.0,2000.0,730.0,2000.0,730.0,2000.0,730.0,2000.0,730.0,2000.0,730.0,1800.0,900.0,1800.0,Obwalden
206,"Rue de la Pierre-à-Mazel 10, 2000 Neuchâtel, Switzerland",Rue de la Pierre-à-Mazel 10,2000,Neuchâtel,Switzerland,46.9951537,6.9439315,4.3,1038,Coop Supermarché Neuchâtel Maladière,ChIJW70_XSMKjkcRId6rO2fi5ms,Monday,Tuesday,Wednesday,Thursday,Friday,Saturday,,800.0,1900.0,800.0,1900.0,800.0,1900.0,800.0,2000.0,800.0,1900.0,800.0,1800.0,,,Neuchâtel
207,"Gare de Neuchâtel 3, 2000 Neuchâtel, Switzerland",Gare de Neuchâtel 3,2000,Neuchâtel,Switzerland,46.9968215,6.9361694,4.0,97,Coop Supermarché Neuchatel Gare,ChIJ12RyrxkKjkcRbeKuL8kYhzc,Monday,Tuesday,Wednesday,Thursday,Friday,Saturday,Sunday,600.0,2200.0,600.0,2200.0,600.0,2200.0,600.0,2200.0,600.0,2200.0,600.0,2200.0,600.0,2200.0,Neuchâtel
208,"Rue de la Treille 4, 2000 Neuchâtel, Switzerland",Rue de la Treille 4,2000,Neuchâtel,Switzerland,46.9905282,6.9296358,4.0,362,Coop Supermarché Neuchâtel La Treille,ChIJhbcC2RMKjkcRjpOIoQo6LUQ,Monday,Tuesday,Wednesday,Thursday,Friday,Saturday,,730.0,1900.0,730.0,1900.0,730.0,1900.0,730.0,2000.0,730.0,1900.0,730.0,1800.0,,,Neuchâtel
209,"Rue des Poudrières 137, 2000 Neuchâtel, Switzerland",Rue des Poudrières 137,2000,Neuchâtel,Switzerland,46.9881663,6.9093795,3.9,306,Coop Supermarché Neuchâtel Vauseyon,ChIJlaQW6ODhjUcRim3_grugDeI,Monday,Tuesday,Wednesday,Thursday,Friday,Saturday,,730.0,1900.0,730.0,1900.0,730.0,1900.0,730.0,2000.0,730.0,1900.0,730.0,1800.0,,,Neuchâtel
210,"Rue des Epancheurs 3, 2000 Neuchâtel, Switzerland",Rue des Epancheurs 3,2000,Neuchâtel,Switzerland,46.9900165,6.930166799999999,4.1,1078,Coop City Neuchâtel,ChIJGYGpSJ4LjkcR1maa3-iaV6Y,Monday,Tuesday,Wednesday,Thursday,Friday,Saturday,,800.0,1900.0,800.0,1900.0,800.0,1900.0,800.0,2000.0,800.0,1900.0,800.0,1800.0,,,Neuchâtel
211,"Espa. de l'Europe 3, 2000 Neuchâtel, Switzerland",Espa. de l'Europe 3,2000,Neuchâtel,Switzerland,46.9968716,6.936719600000001,3.9,453,Coop Pronto Neuchâtel Gare,ChIJ13jwVRgKjkcRMwHt0EX8J5Q,Monday,Tuesday,Wednesday,Thursday,Friday,Saturday,Sunday,500.0,0.0,500.0,0.0,500.0,0.0,500.0,0.0,500.0,0.0,500.0,0.0,500.0,0.0,Neuchâtel
212,"Rue des Uttins 1, 2034 Peseux, Switzerland",Rue des Uttins 1,2034,Peseux,Switzerland,46.9884853,6.8912339,4.0,495,Coop Supermarché Peseux,ChIJz1Gss-rhjUcR5l9cmO-h1kk,Monday,Tuesday,Wednesday,Thursday,Friday,Saturday,,730.0,1900.0,730.0,1900.0,730.0,1900.0,730.0,2000.0,730.0,1900.0,730.0,1800.0,,,Neuchâtel
213,"Pl. des Halles 13, 2000 Neuchâtel, Switzerland",Pl. des Halles 13,2000,Neuchâtel,Switzerland,46.9904338,6.9286542,5.0,8,Coopérative des Halles,ChIJj2BGhhEKjkcRSBOVEU9EjbA,,,,,,,,,,,,,,,,,,,,,,Neuchâtel
214,"Rue des Epancheurs 3, 2000 Neuchâtel, Switzerland",Rue des Epancheurs 3,2000,Neuchâtel,Switzerland,46.9900165,6.930166799999999,4.1,308,Coop Restaurant Neuchâtel,ChIJOcRX2BMKjkcR2owp-bJfhmQ,Monday,Tuesday,Wednesday,Thursday,Friday,Saturday,,800.0,1900.0,800.0,1900.0,800.0,1900.0,800.0,2000.0,800.0,1900.0,800.0,1800.0,,,Neuchâtel
215,"Röschibachstrasse 22, 8037 Zürich, Switzerland",Röschibachstrasse 22,8037,Zürich,Switzerland,47.39277389999999,8.524647000000002,3.9,326,Coop Supermarkt Zürich Wipkingerbrücke,ChIJ-Vog-GkKkEcRSpN3HDvClnY,Monday,Tuesday,Wednesday,Thursday,Friday,Saturday,,730.0,2000.0,730.0,2000.0,730.0,2000.0,730.0,2000.0,730.0,2000.0,730.0,2000.0,,,Zürich
216,"Scheffelstrasse 12, 8037 Zürich, Switzerland",Scheffelstrasse 12,8037,Zürich,Switzerland,47.3938049,8.529575200000002,3.9,337,Coop Supermarkt Zürich Scheffelstrasse,ChIJWcZrL2kKkEcRdFqDH3JcdDE,Monday,Tuesday,Wednesday,Thursday,Friday,Saturday,,700.0,2100.0,700.0,2100.0,700.0,2100.0,700.0,2100.0,700.0,2100.0,700.0,2100.0,,,Zürich
217,"Milchbuckstrasse 1/5, 8057 Zürich, Switzerland",Milchbuckstrasse 1/5,8057,Zürich,Switzerland,47.39567,8.5404066,3.8,441,Coop Supermarkt Zürich Milchbuck,ChIJXU7khXAKkEcRyiofAm8qceM,Monday,Tuesday,Wednesday,Thursday,Friday,Saturday,,730.0,2100.0,730.0,2100.0,730.0,2100.0,730.0,2100.0,730.0,2100.0,730.0,2100.0,,,Zürich
218,"Universitätstrasse 101, 8006 Zürich, Switzerland",Universitätstrasse 101,8006,Zürich,Switzerland,47.3839569,8.5480604,3.7,120,Coop Supermarkt Zürich Rigiplatz,ChIJ6UrCT6CgmkcRc66BhyTAc04,Monday,Tuesday,Wednesday,Thursday,Friday,Saturday,,700.0,2100.0,700.0,2100.0,700.0,2100.0,700.0,2100.0,700.0,2100.0,730.0,2100.0,,,Zürich
219,"Universitätstrasse 73, 8006 Zürich, Switzerland",Universitätstrasse 73,8006,Zürich,Switzerland,47.3825177,8.548023800000001,3.9,276,Coop Supermarkt Zürich Universitätstrasse,ChIJkzTA46CgmkcRdMqv-tjwERQ,Monday,Tuesday,Wednesday,Thursday,Friday,Saturday,,700.0,2100.0,700.0,2100.0,700.0,2100.0,700.0,2100.0,700.0,2100.0,730.0,2100.0,,,Zürich
220,"Schwamendingenstrasse 39, 8050 Zürich, Switzerland",Schwamendingenstrasse 39,8050,Zürich,Switzerland,47.4076242,8.5490836,4.0,287,Coop Supermarkt Zürich Dorflinde,ChIJk3synY8KkEcRPiSd8bYbHLo,Monday,Tuesday,Wednesday,Thursday,Friday,Saturday,,700.0,2000.0,700.0,2000.0,700.0,2000.0,700.0,2000.0,700.0,2000.0,700.0,2000.0,,,Zürich
221,"Hofwiesenstrasse 370, 8050 Zürich, Switzerland",Hofwiesenstrasse 370,8050,Zürich,Switzerland,47.41119589999999,8.5444925,4.1,441,Coop,ChIJ1WK49PgLkEcRRjRLrDyP_qs,Monday,Tuesday,Wednesday,Thursday,Friday,Saturday,,600.0,2200.0,600.0,2200.0,600.0,2200.0,600.0,2200.0,600.0,2200.0,600.0,2200.0,,,Zürich
222,"Röntgenstrasse 48, 8005 Zürich, Switzerland",Röntgenstrasse 48,8005,Zürich,Switzerland,47.38475269999999,8.527192099999997,4.0,221,Coop Supermarkt Zürich Josefstrasse,ChIJBw6ifhQKkEcRfijxLgDRXOQ,Monday,Tuesday,Wednesday,Thursday,Friday,Saturday,,700.0,2100.0,700.0,2100.0,700.0,2100.0,700.0,2100.0,700.0,2100.0,700.0,2100.0,,,Zürich
223,"Wallisellenstrasse 1, 8050 Zürich, Switzerland",Wallisellenstrasse 1,8050,Zürich,Switzerland,47.4103731,8.5466843,4.3,1159,Coop Supermarkt City Zürich Oerlikon Food,ChIJB1QWpoYKkEcRgWviq2UyNOk,Monday,Tuesday,Wednesday,Thursday,Friday,Saturday,,800.0,2000.0,800.0,2000.0,800.0,2000.0,800.0,2000.0,800.0,2000.0,800.0,1800.0,,,Zürich
224,"Andreasstrasse 5, 8050 Zürich, Switzerland",Andreasstrasse 5,8050,Zürich,Switzerland,47.41290499999999,8.5473555,4.3,137,Coop Supermarkt Zürich Andreasturm,ChIJIbLL9VYLkEcRbWHefo1OQxw,Monday,Tuesday,Wednesday,Thursday,Friday,Saturday,,630.0,2000.0,630.0,2000.0,630.0,2000.0,630.0,2000.0,630.0,2000.0,800.0,2000.0,,,Zürich
225,"Wallisellenstrasse 333, 8050 Zürich, Switzerland",Wallisellenstrasse 333,8050,Zürich,Switzerland,47.41136949999999,8.5625841,4.1,349,Coop Supermarkt Zürich Precisa,ChIJ91SLpnugmkcRpZoFHIFAWyY,Monday,Tuesday,Wednesday,Thursday,Friday,Saturday,,800.0,2000.0,800.0,2000.0,800.0,2000.0,800.0,2000.0,800.0,2000.0,730.0,2000.0,,,Zürich
226,"Tessinerpl. 10, 8002 Zürich, Switzerland",Tessinerpl. 10,8002,Zürich,Switzerland,47.3645195,8.5308191,3.8,78,Coop Supermarkt Zürich Enge Bahnhof,ChIJd6HCBvkJkEcR-p95T4wTZsw,Monday,Tuesday,Wednesday,Thursday,Friday,Saturday,Sunday,530.0,2200.0,530.0,2200.0,530.0,2200.0,530.0,2200.0,530.0,2200.0,700.0,2200.0,800.0,2200.0,Zürich
227,"Giessereistrasse 18, 8005 Zürich, Switzerland",Giessereistrasse 18,8005,Zürich,Switzerland,47.3907648,8.5182885,4.1,243,Coop Supermarkt Zürich Puls 5,ChIJXWesJkEKkEcRMMVu8fdKVq4,Monday,Tuesday,Wednesday,Thursday,Friday,Saturday,,700.0,2000.0,700.0,2000.0,700.0,2000.0,700.0,2000.0,700.0,2000.0,800.0,1800.0,,,Zürich
228,"Lindenpl. 6, 8048 Zürich, Switzerland",Lindenpl. 6,8048,Zürich,Switzerland,47.3876386,8.485384600000001,4.0,348,Coop Supermarkt Zürich Lindenplatz,ChIJeZIZA8kLkEcRrBtlVEevG5k,Monday,Tuesday,Wednesday,Thursday,Friday,Saturday,,700.0,2100.0,700.0,2100.0,700.0,2100.0,700.0,2100.0,700.0,2100.0,700.0,2100.0,,,Zürich
229,"Neue Winterthurerstrasse 82, 8304 Wallisellen, Switzerland",Neue Winterthurerstrasse 82,8304,Wallisellen,Switzerland,47.4094811,8.5962266,4.1,109,Coop Supermarkt Wallisellen Richti-Shopping,ChIJZQIQK1KgmkcRw-eGTZy1VFw,Monday,Tuesday,Wednesday,Thursday,Friday,Saturday,,700.0,2100.0,700.0,2100.0,700.0,2100.0,700.0,2100.0,700.0,2100.0,800.0,2100.0,,,Zürich
230,"Am Suteracher 14, 8048 Zürich, Switzerland",Am Suteracher 14,8048,Zürich,Switzerland,47.389955,8.4720952,4.2,167,Coop Supermarkt Zürich Suteracher,ChIJ6bEo5eoLkEcRo5q89S3axQ8,Monday,Tuesday,Wednesday,Thursday,Friday,Saturday,,730.0,2000.0,730.0,2000.0,730.0,2000.0,730.0,2000.0,730.0,2000.0,730.0,2000.0,,,Zürich
231,"Hohlstrasse 35, 8004 Zürich, Switzerland",Hohlstrasse 35,8004,Zürich,Switzerland,47.3771023,8.526500900000002,4.0,389,Coop Supermarkt Zürich Hohlstrasse,ChIJteWyVyIKkEcRed52ybQo6ts,Monday,Tuesday,Wednesday,Thursday,Friday,Saturday,,700.0,2200.0,700.0,2200.0,700.0,2200.0,700.0,2200.0,700.0,2200.0,700.0,2200.0,,,Zürich
232,"In der Ey 85, 8047 Zürich, Switzerland",In der Ey 85,8047,Zürich,Switzerland,47.370577,8.4921401,4.2,267,Coop Supermarkt Zürich Triemli,ChIJU5wHWdULkEcRVLrX-Y3gI88,Monday,Tuesday,Wednesday,Thursday,Friday,Saturday,,730.0,2000.0,730.0,2000.0,730.0,2000.0,730.0,2000.0,730.0,2000.0,730.0,2000.0,,,Zürich
233,"Vulkanpl., 8048 Zürich, Switzerland",Vulkanpl.,8048,Zürich,Switzerland,47.3921018,8.490131300000002,4.1,464,Coop Supermarkt Zürich Westlink,ChIJn6zJrbcLkEcRbx0r_Fr7fVA,Monday,Tuesday,Wednesday,Thursday,Friday,Saturday,Sunday,600.0,2200.0,600.0,2200.0,600.0,2200.0,600.0,2200.0,600.0,2200.0,600.0,2200.0,800.0,2000.0,Zürich
234,"Im Zentrum 1, 8105 Regensdorf, Switzerland",Im Zentrum 1,8105,Regensdorf,Switzerland,47.4315226,8.469446300000001,4.3,143,Coop Supermarkt Regensdorf Zentrum,ChIJP9wCHl4LkEcR5Blke61jVqE,Monday,Tuesday,Wednesday,Thursday,Friday,Saturday,,800.0,2000.0,800.0,2000.0,800.0,2000.0,800.0,2000.0,800.0,2000.0,800.0,2000.0,,,Zürich
235,"Bahnhofpl. 8A, 9000 St. Gallen, Switzerland",Bahnhofpl. 8A,9000,St.,Switzerland,47.4223372,9.3685999,4.3,1021,Coop Supermarkt St. Gallen Bahnhof,ChIJTdsNhkoem0cRQQjpLH0-crQ,Monday,Tuesday,Wednesday,Thursday,Friday,Saturday,Sunday,600.0,2200.0,600.0,2200.0,600.0,2200.0,600.0,2200.0,600.0,2200.0,600.0,2200.0,800.0,2000.0,St. Gallen
236,"Bohl 6, 9000 St. Gallen, Switzerland",Bohl 6,9000,St.,Switzerland,47.4261947,9.3768933,4.1,1157,Coop Supermarkt City St. Gallen Food,ChIJQd4S_Esem0cRCLjZqteugDs,Monday,Tuesday,Wednesday,Thursday,Friday,Saturday,,800.0,1900.0,800.0,1900.0,800.0,1900.0,800.0,2000.0,800.0,1900.0,800.0,1800.0,,,St. Gallen
237,"Favrestrasse 6, 9016 St. Gallen, Switzerland",Favrestrasse 6,9016,St.,Switzerland,47.4379639,9.4128397,4.4,1447,Coop Supermarkt St. Gallen Gallusmarkt,ChIJiznN6ZIem0cRoiCPG1_eBCQ,Monday,Tuesday,Wednesday,Thursday,Friday,Saturday,,800.0,1900.0,800.0,1900.0,800.0,1900.0,800.0,2100.0,800.0,1900.0,800.0,1700.0,,,St. Gallen
238,"Neugasse 48, 9000 St. Gallen, Switzerland",Neugasse 48,9000,St.,Switzerland,47.4243378,9.3743853,4.2,223,Coop Supermarkt St. Gallen Neugasse,ChIJQd4S_Esem0cRYFeLpyMP4X4,Monday,Tuesday,Wednesday,Thursday,Friday,Saturday,,700.0,1900.0,700.0,1900.0,700.0,1900.0,700.0,2000.0,700.0,1900.0,700.0,1800.0,,,St. Gallen
239,"Zürcherstrasse 462, 9015 St. Gallen, Switzerland",Zürcherstrasse 462,9015,St.,Switzerland,47.4081801,9.3048603,4.4,388,Coop Supermarkt St. Gallen Shopping Arena,ChIJ2asOxUPgmkcRsw2tbK106EU,Monday,Tuesday,Wednesday,Thursday,Friday,Saturday,,800.0,1900.0,800.0,1900.0,800.0,1900.0,800.0,2100.0,800.0,1900.0,800.0,1700.0,,,St. Gallen
240,"Lerchenfeld CH, Zürcherstrasse 204, 9014 St. Gallen, Switzerland",Lerchenfeld CH,9014,St.,Switzerland,47.4127498,9.3358925,4.3,318,Coop Supermarkt St. Gallen Lerchenfeld,ChIJ7_jYLybgmkcRTTLPLpJqweA,Monday,Tuesday,Wednesday,Thursday,Friday,Saturday,,800.0,1900.0,800.0,1900.0,800.0,1900.0,800.0,2000.0,800.0,1900.0,800.0,1700.0,,,St. Gallen
241,"Kornhausstrasse 18, 9000 St. Gallen, Switzerland",Kornhausstrasse 18,9000,St.,Switzerland,47.4225275,9.3715834,4.1,122,Coop Pronto Shop St. Gallen Kornhausstrasse,ChIJCc18qUsem0cRJ2FbQeWhD78,Monday,Tuesday,Wednesday,Thursday,Friday,Saturday,Sunday,500.0,2200.0,500.0,2200.0,500.0,2200.0,500.0,2200.0,500.0,2200.0,500.0,2200.0,700.0,2100.0,St. Gallen
242,"Favrestrasse 6, 9016 St. Gallen, Switzerland",Favrestrasse 6,9016,St.,Switzerland,47.43761869999999,9.4124692,4.1,104,Coop Pronto Shop mit Tankstelle St. Gallen Gallusmarkt,ChIJm2Cw45Iem0cRQocsbyxGEpA,Monday,Tuesday,Wednesday,Thursday,Friday,Saturday,Sunday,530.0,2200.0,530.0,2200.0,530.0,2200.0,530.0,2200.0,530.0,2200.0,530.0,2200.0,700.0,2100.0,St. Gallen
243,"Rorschacher Str. 218, 9000 St. Gallen, Switzerland",Rorschacher Str. 218,9000,St.,Switzerland,47.4346718,9.4021305,4.3,201,Coop Pronto Shop mit Tankstelle St. Gallen St. Fiden,ChIJn6VsiPQem0cReu_lCbi3euM,Monday,Tuesday,Wednesday,Thursday,Friday,Saturday,Sunday,530.0,2200.0,530.0,2200.0,530.0,2200.0,530.0,2200.0,530.0,2200.0,530.0,2200.0,700.0,2100.0,St. Gallen
244,"Fürstenlandstrasse 17, 9000 St. Gallen, Switzerland",Fürstenlandstrasse 17,9000,St.,Switzerland,47.4149901,9.3536084,4.4,179,Coop Pronto Shop mit Tankstelle St.Gallen Fürstenlandstrasse,ChIJwSVHIM4fm0cRyEDF1iBK-QA,Monday,Tuesday,Wednesday,Thursday,Friday,Saturday,Sunday,530.0,2200.0,530.0,2200.0,530.0,2200.0,530.0,2200.0,530.0,2200.0,530.0,2200.0,700.0,2100.0,St. Gallen
245,"Favrestrasse 6, 9016 St. Gallen, Switzerland",Favrestrasse 6,9016,St.,Switzerland,47.4379171,9.4124528,4.4,251,JUMBO St. Gallen Gallusmarkt,ChIJb4rv1b8fm0cRj6ep7jQR4gE,Monday,Tuesday,Wednesday,Thursday,Friday,Saturday,,800.0,1900.0,800.0,1900.0,800.0,1900.0,800.0,2100.0,800.0,1900.0,800.0,1700.0,,,St. Gallen
246,"Rue de Carouge 76, 1205 Genève, Switzerland",Rue de Carouge 76,1205,Genève,Switzerland,46.1921857,6.1437072,4.1,533,Coop Supermarché Genève Augustins,ChIJ4T0Q29R6jEcRA6GesTrGNKw,Monday,Tuesday,Wednesday,Thursday,Friday,Saturday,,730.0,1900.0,730.0,1900.0,730.0,1900.0,730.0,2100.0,730.0,1930.0,730.0,1800.0,,,Genève
247,"Rue du Commerce 5, 1204 Genève, Switzerland",Rue du Commerce 5,1204,Genève,Switzerland,46.2041709,6.145159,4.2,2228,Coop City Genève Fusterie,ChIJ26xzGClljEcRJCZHsWPAexA,Monday,Tuesday,Wednesday,Thursday,Friday,Saturday,,830.0,1900.0,830.0,1900.0,830.0,1900.0,830.0,2000.0,830.0,1930.0,830.0,1800.0,,,Genève
248,"Rue de Jargonnant 5, 1207 Genève, Switzerland",Rue de Jargonnant 5,1207,Genève,Switzerland,46.2005862,6.159896199999999,4.2,592,Coop,ChIJuWuMzDVljEcRe58areN_Uig,Monday,Tuesday,Wednesday,Thursday,Friday,Saturday,,730.0,1900.0,730.0,1900.0,730.0,1900.0,730.0,2100.0,730.0,1930.0,730.0,1800.0,,,Genève
249,"Rue de Montbrillant 90, 1202 Genève, Switzerland",Rue de Montbrillant 90,1202,Genève,Switzerland,46.2202958,6.141812199999999,4.2,849,Coop Supermarché Genève Montbrillant,ChIJBwX-oOFkjEcRkl6_5ZzelzY,Monday,Tuesday,Wednesday,Thursday,Friday,Saturday,,730.0,1900.0,730.0,1900.0,730.0,1900.0,730.0,2000.0,730.0,1930.0,730.0,1800.0,,,Genève
250,"Rue de la Servette 81, 1202 Genève, Switzerland",Rue de la Servette 81,1202,Genève,Switzerland,46.2124061,6.131160699999999,4.2,783,Coop Supermarché Genève Servette,ChIJ_b-GVcNkjEcRnSztlErRtLE,Monday,Tuesday,Wednesday,Thursday,Friday,Saturday,,730.0,1900.0,730.0,1900.0,730.0,1900.0,730.0,2100.0,730.0,1930.0,730.0,1800.0,,,Genève
251,"Rue de Montchoisy 35, 1207 Genève, Switzerland",Rue de Montchoisy 35,1207,Genève,Switzerland,46.204401,6.1619876,4.0,269,Coop Supermarché Genève Montchoisy,ChIJ3-6ryzVljEcRallpvgckuww,Monday,Tuesday,Wednesday,Thursday,Friday,Saturday,,730.0,1900.0,730.0,1900.0,730.0,1900.0,730.0,2000.0,730.0,1930.0,730.0,1800.0,,,Genève
252,"Rue des Pâquis 35, 1201 Genève, Switzerland",Rue des Pâquis 35,1201,Genève,Switzerland,46.2119773,6.149459499999999,4.1,422,Coop Supermarché Genève Pâquis,ChIJhSep9iNljEcR2qOHHtkPSSQ,Monday,Tuesday,Wednesday,Thursday,Friday,Saturday,,730.0,1900.0,730.0,1900.0,730.0,1900.0,730.0,2100.0,730.0,1930.0,730.0,1800.0,,,Genève
253,"Sous-sol, Rue du Mont-Blanc 30, 1201 Genève, Switzerland",Sous-sol,1201,Genève,Switzerland,46.20915529999999,6.1430947,3.9,101,Coop Supermarché Genève Gare Mont-Blanc,ChIJU4kzY_ZljEcRRB0e5Hjg4-Y,Monday,Tuesday,Wednesday,Thursday,Friday,Saturday,Sunday,600.0,2200.0,600.0,2200.0,600.0,2200.0,600.0,2200.0,600.0,2200.0,600.0,2200.0,600.0,2200.0,Genève
254,"Av. de Champel 8C, 1206 Genève, Switzerland",Av. de Champel 8C,1206,Genève,Switzerland,46.19463210000001,6.152285000000001,4.1,611,Coop Supermarché Genève Champel,ChIJWaoVjLV6jEcRWGS3UDFYxLw,Monday,Tuesday,Wednesday,Thursday,Friday,Saturday,,730.0,1900.0,730.0,1900.0,730.0,1900.0,730.0,2000.0,730.0,1930.0,730.0,1800.0,,,Genève
255,"Rue Voltaire 18, 1201 Genève, Switzerland",Rue Voltaire 18,1201,Genève,Switzerland,46.2079939,6.1373634,4.0,231,Coop Supermarché Genève Voltaire,ChIJeY8p5NlkjEcRVVUFddj7kM0,Monday,Tuesday,Wednesday,Thursday,Friday,Saturday,,730.0,1900.0,730.0,1900.0,730.0,1900.0,730.0,2000.0,730.0,1930.0,730.0,1800.0,,,Genève
256,"Bd Carl-Vogt 22, 1205 Genève, Switzerland",Bd Carl-Vogt 22,1205,Genève,Switzerland,46.1997738,6.1323249,4.2,519,Coop Supermarché Genève Jonction,ChIJs2BAHNNkjEcRiDgAIJNVS0k,Monday,Tuesday,Wednesday,Thursday,Friday,Saturday,,730.0,1900.0,730.0,1900.0,730.0,1900.0,730.0,2000.0,730.0,1930.0,730.0,1800.0,,,Genève
257,"Rue de Lausanne 38, 1201 Genève, Switzerland",Rue de Lausanne 38,1201,Genève,Switzerland,46.2132532,6.145692400000001,4.0,254,Coop Supermarché Genève Rue de Lausanne,ChIJY4Sj4CBljEcRbeAofGHbLFI,Monday,Tuesday,Wednesday,Thursday,Friday,Saturday,,730.0,1900.0,730.0,1900.0,730.0,1900.0,730.0,2100.0,730.0,1930.0,730.0,1800.0,,,Genève
258,"Pl. des Charmilles 1, 1203 Genève, Switzerland",Pl. des Charmilles 1,1203,Genève,Switzerland,46.2081714,6.127462199999999,4.1,514,Coop Supermarché Genève Charmilles,ChIJTWDLVNtkjEcRNt4jeAKL6Gk,Monday,Tuesday,Wednesday,Thursday,Friday,Saturday,,730.0,1900.0,730.0,1900.0,730.0,1900.0,730.0,2000.0,730.0,1930.0,730.0,1800.0,,,Genève
259,"Bvd de Saint-Georges 72, 1205 Genève, Switzerland",Bvd de Saint-Georges 72,1205,Genève,Switzerland,46.2013246,6.13904,3.8,278,Coop Supermarché Genève Cirque,ChIJ603rISlljEcRI6I06-6vGqw,Monday,Tuesday,Wednesday,Thursday,Friday,Saturday,,730.0,1900.0,730.0,1900.0,730.0,1900.0,730.0,2000.0,730.0,1930.0,730.0,1800.0,,,Genève
260,"Av. De-Budé 15, 1202 Genève, Switzerland",Av. De-Budé 15,1202,Genève,Switzerland,46.2249399,6.1312948,4.1,308,Coop Supermarché Genève de Budé,ChIJbaRwVO5kjEcRRNB2McYlnhw,Monday,Tuesday,Wednesday,Thursday,Friday,Saturday,,800.0,1900.0,800.0,1900.0,800.0,1900.0,800.0,2000.0,800.0,1930.0,800.0,1800.0,,,Genève
261,"Rte de Florissant 56, 1206 Genève, Switzerland",Rte de Florissant 56,1206,Genève,Switzerland,46.1933482,6.1614395,4.2,638,Coop Supermarché Genève Florissant,ChIJWaoVjLV6jEcRUaWt5aBNv28,Monday,Tuesday,Wednesday,Thursday,Friday,Saturday,,730.0,1900.0,730.0,1900.0,730.0,1900.0,730.0,2000.0,730.0,1930.0,730.0,1800.0,,,Genève
262,"Rue de Saint-Jean 49, 1203 Genève, Switzerland",Rue de Saint-Jean 49,1203,Genève,Switzerland,46.2051811,6.130406199999999,4.2,74,Coop Supermarché Genève St-Jean Parc,ChIJyVrVc6VljEcRfdFXjkzVCN4,Monday,Tuesday,Wednesday,Thursday,Friday,Saturday,,730.0,1900.0,730.0,1900.0,730.0,1900.0,730.0,2000.0,730.0,1930.0,730.0,1800.0,,,Genève
263,"Rue Daubin 25, 1203 Genève, Switzerland",Rue Daubin 25,1203,Genève,Switzerland,46.2069201,6.1298625,4.1,243,Coop Supermarché Genève Daubin,ChIJd8Oc6M9kjEcR6gjakylEvYI,Monday,Tuesday,Wednesday,Thursday,Friday,Saturday,,730.0,1900.0,730.0,1900.0,730.0,1900.0,730.0,2000.0,730.0,1930.0,730.0,1800.0,,,Genève
264,"Av. du Devin-du-Village 1, 1203 Genève, Switzerland",Av. du Devin-du-Village 1,1203,Genève,Switzerland,46.20391499999999,6.124689999999998,4.1,160,Coop Supermarché Genève Saint-Jean,ChIJd8Oc6M9kjEcR4jq15354WbI,Monday,Tuesday,Wednesday,Thursday,Friday,Saturday,,730.0,1900.0,730.0,1900.0,730.0,1900.0,730.0,2000.0,730.0,1930.0,730.0,1800.0,,,Genève
265,"Rue de Carouge 12, 1205 Genève, Switzerland",Rue de Carouge 12,1205,Genève,Switzerland,46.1968841,6.1427974,4.1,1332,Coop City Genève Plainpalais,ChIJbeprz9R6jEcRytlL_p3DwAc,Monday,Tuesday,Wednesday,Thursday,Friday,Saturday,,800.0,1900.0,800.0,1900.0,800.0,1900.0,800.0,1930.0,800.0,1930.0,800.0,1800.0,,,Genève
266,"Burgstrasse 6, 8750 Glarus, Switzerland",Burgstrasse 6,8750,Glarus,Switzerland,47.0401192,9.0696079,4.1,199,Coop Supermarkt Glarus,ChIJyYJemrIthUcRYlXJv9cwh7w,Monday,Tuesday,Wednesday,Thursday,Friday,Saturday,,730.0,1900.0,730.0,1900.0,730.0,1900.0,730.0,1900.0,730.0,1900.0,730.0,1800.0,,,Glarus
267,"Rte Champ-des-Fontaines 2, 1700 Fribourg, Switzerland",Rte Champ-des-Fontaines 2,1700,Fribourg,Switzerland,46.8094523,7.144176400000001,4.0,153,Coop Supermarché Fribourg Jura,ChIJuR41JcxujkcRmvm1FPpcvxw,Monday,Tuesday,Wednesday,Thursday,Friday,Saturday,,730.0,1900.0,730.0,1900.0,730.0,1900.0,730.0,1900.0,730.0,1900.0,730.0,1600.0,,,Fribourg
268,"Fbg Saint-Germain 3, 2900 Porrentruy, Switzerland",Fbg Saint-Germain 3,2900,Porrentruy,Switzerland,47.41712229999999,7.077700099999999,4.2,584,Coop Supermarché Porrentruy Ajoie,ChIJ53KW-Q_3kUcRCDrJRc25Ld4,Monday,Tuesday,Wednesday,Thursday,Friday,Saturday,,800.0,1830.0,800.0,1830.0,800.0,1830.0,800.0,2000.0,800.0,1830.0,730.0,1700.0,,,Jura
269,"Rue de l'Abbé-Monnin 81, 2854 Bassecourt, Switzerland",Rue de l'Abbé-Monnin 81,2854,Bassecourt,Switzerland,47.3389461,7.252449400000001,4.2,1047,Coop Supermarché Bassecourt,ChIJ45eeTrPlkUcRnAKHFl0uqNc,Monday,Tuesday,Wednesday,Thursday,Friday,Saturday,,800.0,1830.0,800.0,1830.0,800.0,1830.0,800.0,1830.0,800.0,2000.0,800.0,1700.0,,,Jura
270,"Bahnhof SBB, 6300 Zug, Switzerland",Bahnhof SBB,6300,Zug,Switzerland,47.1733961,8.515507999999999,4.0,553,Coop Supermarkt Zug Bahnhof,ChIJwRhUL_aqmkcRK22wRZ-BudQ,Monday,Tuesday,Wednesday,Thursday,Friday,Saturday,Sunday,600.0,2200.0,600.0,2200.0,600.0,2200.0,600.0,2200.0,600.0,2200.0,600.0,2200.0,700.0,2200.0,Zug
271,"Bundespl. 11, 6300 Zug, Switzerland",Bundespl. 11,6300,Zug,Switzerland,47.171421,8.514811500000002,4.3,1174,Coop City Zug,ChIJ56eAf1iqmkcRmoneG9jXXz0,Monday,Tuesday,Wednesday,Thursday,Friday,Saturday,,800.0,1900.0,800.0,1900.0,800.0,1900.0,800.0,2000.0,800.0,1900.0,800.0,1700.0,,,Zug
272,"Baarerstrasse 6, 6300 Zug, Switzerland",Baarerstrasse 6,6300,Zug,Switzerland,47.1709556,8.516433699999999,4.1,325,Coop Supermarkt Zug Neustadt,ChIJwRhUL_aqmkcRXn9CXISB2Fg,Monday,Tuesday,Wednesday,Thursday,Friday,Saturday,,730.0,1900.0,730.0,1900.0,730.0,1900.0,730.0,2000.0,730.0,1900.0,730.0,1700.0,,,Zug
273,"Bahnhofplatz, 6300 Zug, Switzerland",Bahnhofplatz,6300,Zug,Switzerland,47.1736258,8.515306400000002,3.6,71,Coop to go Zug Bahnhof,ChIJS6pg9liqmkcRheqdB6-FMEQ,Monday,Tuesday,Wednesday,Thursday,Friday,Saturday,Sunday,600.0,2100.0,600.0,2100.0,600.0,2100.0,600.0,2100.0,600.0,2100.0,700.0,2000.0,800.0,2000.0,Zug
274,"Bundespl. 11, 6300 Zug, Switzerland",Bundespl. 11,6300,Zug,Switzerland,47.1712913,8.514982200000002,4.0,144,Coop Restaurant Zug City,ChIJwRhUL_aqmkcRBmG7OiwZGhU,Monday,Tuesday,Wednesday,Thursday,Friday,Saturday,,800.0,1900.0,800.0,1900.0,800.0,1900.0,800.0,2000.0,800.0,1900.0,800.0,1700.0,,,Zug
275,"6300 Zug, Switzerland",6300 Zug,6300,Zug,,47.1716802,8.514331000000002,2.8,11,Parkhaus Coop City Zug,ChIJ0WU_Pa6rmkcRXSZ0PIVU9P8,,,,,,,,,,,,,,,,,,,,,,Zug
276,"Zugerstrasse 14, 6330 Cham, Switzerland",Zugerstrasse 14,6330,Cham,Switzerland,47.1814619,8.4615517,4.2,377,Coop Supermarkt Cham Seehof,ChIJI11au4wAkEcRyyjR9WT4MVY,Monday,Tuesday,Wednesday,Thursday,Friday,Saturday,,800.0,1900.0,800.0,1900.0,800.0,1900.0,800.0,1900.0,800.0,2000.0,730.0,1700.0,,,Zug
277,"Marktstrasse 32, 6060 Sarnen, Switzerland",Marktstrasse 32,6060,Sarnen,Switzerland,46.8974718,8.2510819,4.3,503,Coop Supermarkt Sarnen,ChIJRVjqAEryj0cRtDG_UJV7y2I,Monday,Tuesday,Wednesday,Thursday,Friday,Saturday,,800.0,2000.0,800.0,2000.0,800.0,2000.0,800.0,2000.0,800.0,2000.0,730.0,1800.0,,,Obwalden
278,"Schoriederstrasse 1, 6055 Alpnach, Switzerland",Schoriederstrasse 1,6055,Alpnach,Switzerland,46.937693,8.2697328,4.0,214,Coop Supermarkt Alpnach,ChIJI8EzYgrxj0cRwWE48-TegTE,Monday,Tuesday,Wednesday,Thursday,Friday,Saturday,,730.0,1900.0,730.0,1900.0,730.0,1900.0,730.0,1900.0,730.0,1900.0,730.0,1800.0,,,Obwalden
279,"Brünigstrasse 42, 6074 Giswil, Switzerland",Brünigstrasse 42,6074,Giswil,Switzerland,46.8375064,8.186092700000001,4.3,211,Coop Supermarkt Giswil,ChIJFSNiS6mSj0cR47CBIfZepWo,Monday,Tuesday,Wednesday,Thursday,Friday,Saturday,,700.0,1900.0,700.0,1900.0,700.0,1900.0,700.0,1900.0,700.0,1900.0,700.0,1800.0,,,Obwalden
280,"Landweg 2, 6052 Hergiswil, Switzerland",Landweg 2,6052,Hergiswil,Switzerland,46.985962,8.311436000000004,4.3,124,Coop Supermarkt Hergiswil Landweg,ChIJmSUlX6Hwj0cRKnnS0rned80,Monday,Tuesday,Wednesday,Thursday,Friday,Saturday,,730.0,2000.0,730.0,2000.0,730.0,2000.0,730.0,2000.0,730.0,2000.0,730.0,1800.0,,,Nidwalden
281,"Bahnhofstrasse 2, 6052 Hergiswil, Switzerland",Bahnhofstrasse 2,6052,Hergiswil,Switzerland,46.9817416,8.310387900000002,4.3,173,Coop Supermarkt Hergiswil Bahnhofstrasse,ChIJmSUlX6Hwj0cRmVeTeQFOzxg,Monday,Tuesday,Wednesday,Thursday,Friday,Saturday,,730.0,2000.0,730.0,2000.0,730.0,2000.0,730.0,2000.0,730.0,2000.0,730.0,1800.0,,,Nidwalden
282,"Dorfstrasse 12, 6064 Kerns, Switzerland",Dorfstrasse 12,6064,Kerns,Switzerland,46.9012121,8.2757968,4.5,30,Coop Supermarkt Kerns,ChIJ70iw547zj0cRcscCIc5f3WY,Monday,Tuesday,Wednesday,Thursday,Friday,Saturday,,730.0,1900.0,730.0,1900.0,730.0,1900.0,730.0,1900.0,730.0,1900.0,730.0,1800.0,,,Obwalden
283,"Titliszentrum 5, 6390 Engelberg, Switzerland",Titliszentrum 5,6390,Engelberg,Switzerland,46.820588,8.4047017,4.2,734,Coop,ChIJfY7qB3NghUcR3CsHwwrQo2w,Monday,Tuesday,Wednesday,Thursday,Friday,Saturday,Sunday,730.0,2000.0,730.0,2000.0,730.0,2000.0,730.0,2000.0,730.0,2000.0,730.0,1800.0,900.0,1800.0,Obwalden
284,"Marktstrasse 32, 6060 Sarnen, Switzerland",Marktstrasse 32,6060,Sarnen,Switzerland,46.8974718,8.2510819,4.2,95,Coop Restaurant Sarnen,ChIJZWudFzbyj0cRlffEeFtTkpY,Monday,Tuesday,Wednesday,Thursday,Friday,Saturday,,730.0,1800.0,730.0,1800.0,730.0,1800.0,730.0,1800.0,730.0,1800.0,700.0,1800.0,,,Obwalden
285,"Buochserstrasse 4, 6370 Stans, Switzerland",Buochserstrasse 4,6370,Stans,Switzerland,46.9581853,8.368242100000002,4.2,332,Coop Supermarkt Stans,ChIJ5eBCK6H3j0cRkzvkC4JyBdA,Monday,Tuesday,Wednesday,Thursday,Friday,Saturday,,730.0,1900.0,730.0,1900.0,730.0,1900.0,730.0,1900.0,730.0,1900.0,730.0,1800.0,,,Nidwalden
286,"Schützenmatte, 6362 Stansstad, Switzerland",Schützenmatte,6362,Stansstad,Switzerland,46.9756216,8.341565799999998,4.2,171,Coop Supermarkt Stansstad,ChIJoT_-50X3j0cRllwJfFDW2Hs,Monday,Tuesday,Wednesday,Thursday,Friday,Saturday,,730.0,1900.0,730.0,1900.0,730.0,1900.0,730.0,1900.0,730.0,1900.0,730.0,1800.0,,,Nidwalden
287,"Alpwegern 2, 3860 Meiringen, Switzerland",Alpwegern 2,3860,Meiringen,Switzerland,46.7285189,8.1817729,4.4,497,Coop Supermarkt Meiringen,ChIJgc_aGzWOj0cRqVkvoc_sEiw,Monday,Tuesday,Wednesday,Thursday,Friday,Saturday,,800.0,1900.0,800.0,1900.0,800.0,1900.0,800.0,1900.0,800.0,1900.0,800.0,1800.0,,,Bern
288,"Ringstrasse 19, 6010 Kriens, Switzerland",Ringstrasse 19,6010,Kriens,Switzerland,47.0174569,8.2996065,4.4,599,Coop Supermarkt Kriens Pilatusmarkt,ChIJL-Ojy1n6j0cR9YAqmlzQL7c,Monday,Tuesday,Wednesday,Thursday,Friday,Saturday,,900.0,1900.0,900.0,1900.0,900.0,1900.0,900.0,1900.0,900.0,2100.0,800.0,1700.0,,,Luzern
289,"Kantonsstrasse 100, 6048 Horw, Switzerland",Kantonsstrasse 100,6048,Horw,Switzerland,47.0194799,8.311013799999998,4.2,252,Coop Supermarkt Horw,ChIJI79yD0b6j0cRqhBIlyjtD5I,Monday,Tuesday,Wednesday,Thursday,Friday,Saturday,,730.0,1900.0,730.0,1900.0,730.0,1900.0,730.0,1900.0,730.0,2000.0,730.0,1700.0,,,Lucerne
290,"Hauptstrasse 139, 3855 Brienz, Switzerland",Hauptstrasse 139,3855,Brienz,Switzerland,46.7548019,8.037490000000002,4.3,507,Coop Supermarkt Brienz,ChIJM2K6hfKWj0cRT_M4Tm-3bec,Monday,Tuesday,Wednesday,Thursday,Friday,Saturday,,800.0,1900.0,800.0,1900.0,800.0,1900.0,800.0,1900.0,800.0,2000.0,800.0,1700.0,,,Bern
291,"Langensandstrasse 23, 6005 Luzern, Switzerland",Langensandstrasse 23,6005,Luzern,Switzerland,47.03729329999999,8.3283896,4.0,86,Coop Supermarkt Luzern Schönbühl,ChIJlxqlMM_7j0cRa57aBqYOTNs,Monday,Tuesday,Wednesday,Thursday,Friday,Saturday,,830.0,1900.0,830.0,1900.0,830.0,1900.0,830.0,1900.0,830.0,2000.0,800.0,1700.0,,,Luzern
292,"Nähseydi 6, 6374 Buochs, Switzerland",Nähseydi 6,6374,Buochs,Switzerland,46.9791833,8.416130299999999,4.3,477,Coop Supermarkt Buochs,ChIJjbg8dPn3j0cRbzb8xG-6CGU,Monday,Tuesday,Wednesday,Thursday,Friday,Saturday,,730.0,2000.0,730.0,2000.0,730.0,2000.0,730.0,2000.0,730.0,2000.0,730.0,2000.0,,,Nidwalden
293,"Bahnhofstrasse 1, 6060 Sarnen, Switzerland",Bahnhofstrasse 1,6060,Sarnen,Switzerland,46.8942199,8.2474453,3.9,11,avec,ChIJHUmrx_nzj0cRUB1VwuS336Y,Monday,Tuesday,Wednesday,Thursday,Friday,Saturday,Sunday,545.0,2100.0,545.0,2100.0,545.0,2100.0,545.0,2100.0,545.0,2200.0,600.0,2200.0,700.0,2100.0,Obwalden
294,"Unterfeld 4A, 6102 Malters, Switzerland",Unterfeld 4A,6102,Malters,Switzerland,47.0375744,8.1795697,4.1,203,Coop Supermarkt Malters Weihermatte,ChIJK6hQbbXlj0cRQDki5Yxb3gI,Monday,Tuesday,Wednesday,Thursday,Friday,Saturday,,730.0,1900.0,730.0,1900.0,730.0,1900.0,730.0,1900.0,730.0,2000.0,730.0,1700.0,,,Luzern
295,"Hobacherweg 2, 6010 Kriens, Switzerland",Hobacherweg 2,6010,Kriens,Switzerland,47.034318,8.274046499999999,4.2,205,Coop Supermarkt Kriens Schappe,ChIJa_7NiB_7j0cRGn3RtL--mI4,Monday,Tuesday,Wednesday,Thursday,Friday,Saturday,,800.0,1900.0,800.0,1900.0,800.0,1900.0,800.0,1900.0,800.0,2000.0,730.0,1700.0,,,Luzern
296,"Pilatusstrasse 14b, 6060 Sarnen, Switzerland",Pilatusstrasse 14b,6060,Sarnen,Switzerland,46.90128,8.2483,4.2,232,Lidl Schweiz,ChIJtR97Pp_zj0cR3VS7Fm3IWJ0,Monday,Tuesday,Wednesday,Thursday,Friday,Saturday,,730.0,2000.0,730.0,2000.0,730.0,2000.0,730.0,2000.0,730.0,2100.0,730.0,2000.0,,,Obwalden
297,"Rue Louis-d'Affry 4, 1700 Fribourg, Switzerland",Rue Louis-d'Affry 4,1700,Fribourg,Switzerland,46.8036831,7.150504700000001,4.2,818,Coop Supermarché Fribourg Gare,ChIJOT83SCxpjkcRuOpg7YkW9vE,Monday,Tuesday,Wednesday,Thursday,Friday,Saturday,Sunday,600.0,2100.0,600.0,2100.0,600.0,2100.0,600.0,2100.0,600.0,2100.0,600.0,2100.0,700.0,1900.0,Fribourg
298,"Av. de la Gare 10, 1700 Fribourg, Switzerland",Av. de la Gare 10,1700,Fribourg,Switzerland,46.80294749999999,7.151878699999999,4.1,680,Coop City Fribourg,ChIJ821sNixpjkcRAUTEMAGFkyo,Monday,Tuesday,Wednesday,Thursday,Friday,Saturday,,830.0,1900.0,830.0,1900.0,830.0,1900.0,830.0,1900.0,830.0,2000.0,800.0,1600.0,,,Fribourg
299,"Rte Champ-des-Fontaines 2, 1700 Fribourg, Switzerland",Rte Champ-des-Fontaines 2,1700,Fribourg,Switzerland,46.8094523,7.144176400000001,4.0,153,Coop Supermarché Fribourg Jura,ChIJuR41JcxujkcRmvm1FPpcvxw,Monday,Tuesday,Wednesday,Thursday,Friday,Saturday,,730.0,1900.0,730.0,1900.0,730.0,1900.0,730.0,1900.0,730.0,1900.0,730.0,1600.0,,,Fribourg
300,"Rte Mon-Repos 5, 1700 Fribourg, Switzerland",Rte Mon-Repos 5,1700,Fribourg,Switzerland,46.80886719999999,7.173485299999999,3.9,193,Coop Supermarché Fribourg Schönberg,ChIJk_X2DBZpjkcRt-dXFzF1IaA,Monday,Tuesday,Wednesday,Thursday,Friday,Saturday,,730.0,1900.0,730.0,1900.0,730.0,1900.0,730.0,1900.0,730.0,1900.0,730.0,1600.0,,,Fribourg
301,"Av. de la Gare 3, 1700 Fribourg, Switzerland",Av. de la Gare 3,1700,Fribourg,Switzerland,46.8034669,7.150933500000001,3.1,29,Coop to go Fribourg Gare,ChIJxTvnRflpjkcRmpxrZgUPBZY,Monday,Tuesday,Wednesday,Thursday,Friday,Saturday,Sunday,600.0,2200.0,600.0,2200.0,600.0,2200.0,600.0,2200.0,600.0,2200.0,600.0,2200.0,700.0,2100.0,Fribourg
302,"Rte d'Agy 1, 1763 Granges-Paccot, Switzerland",Rte d'Agy 1,1763,Granges-Paccot,Switzerland,46.8206221,7.1534422,4.1,596,Coop Supermarché Granges-Paccot,ChIJaQRKpExpjkcRv_SH8sRtQjs,Monday,Tuesday,Wednesday,Thursday,Friday,Saturday,,800.0,1900.0,800.0,1900.0,800.0,1900.0,800.0,2000.0,800.0,1900.0,800.0,1600.0,,,Fribourg
303,"Rte de Tavel 8, 1700 Fribourg, Switzerland",Rte de Tavel 8,1700,Fribourg,Switzerland,46.81050489999999,7.17797,3.7,127,Coop Pronto avec station-service Fribourg Route de Tavel,ChIJJzwkahRpjkcRfJIQnT9U9bc,Monday,Tuesday,Wednesday,Thursday,Friday,Saturday,Sunday,600.0,2100.0,600.0,2100.0,600.0,2100.0,600.0,2100.0,600.0,2100.0,600.0,2100.0,600.0,1900.0,Fribourg
304,"Rte de la Fonderie 14, 1700 Fribourg, Switzerland",Rte de la Fonderie 14,1700,Fribourg,Switzerland,46.7948054,7.150172599999999,3.8,165,Coop Pronto avec station-service La Fonderie Fribourg,ChIJq71MwdVojkcRvl9m8PTh6h4,Monday,Tuesday,Wednesday,Thursday,Friday,Saturday,Sunday,600.0,2100.0,600.0,2100.0,600.0,2100.0,600.0,2100.0,600.0,2100.0,600.0,2100.0,600.0,1900.0,Fribourg
