Address,Street Name,Zip Code,City,Canton,Country,Latitude,Longitude,Rating,Number of Ratings,Place Name,Place ID,Sunday_Open,Monday_Open,Tuesday_Open,Wednesday_Open,Thursday_Open,Friday_Open,Saturday_Open,Sunday_Close,Monday_Close,Tuesday_Close,Wednesday_Close,Thursday_Close,Friday_Close,Saturday_Close,Brand,Type,Store ID,Name,Opening Hour
"Baarerstrasse 22, 6300 Zug, Switzerland",Baarerstrasse 22,6300,Zug,Zug,Switzerland,47.1731333,8.518225200000002,4.3,780.0,Migros-Supermarkt - Zug - Metalli,ChIJo__gbFiqmkcR9x1jTPe_CaI,,800.0,800.0,800.0,800.0,800.0,800.0,,1900.0,1900.0,1900.0,2000.0,1900.0,1700.0,MIGROS,,,,
"Grabenstrasse 5, 6300 Zug, Switzerland",Grabenstrasse 5,6300,Zug,Zug,Switzerland,47.1652756,8.515132,4.3,104.0,Migros-Supermarkt - Zug - Grabenstrasse,ChIJo__gbFiqmkcRmHSpL2C1TQg,,800.0,800.0,800.0,800.0,800.0,800.0,,1900.0,1900.0,1900.0,1900.0,1900.0,1700.0,MIGROS,,,,
"Hertizentrum 10, 6300 Zug, Switzerland",Hertizentrum 10,6300,Zug,Zug,Switzerland,47.17803209999999,8.5059051,4.4,172.0,Migros-Supermarkt - Zug Herti,ChIJP5O8L2eqmkcRIDYDSSgq5D4,,730.0,730.0,730.0,730.0,730.0,730.0,,1900.0,1900.0,1900.0,1900.0,2000.0,1700.0,MIGROS,,,,
"Hinterbergstrasse 40, 6312 Steinhausen, Switzerland",Hinterbergstrasse 40,6312,Steinhausen,Zug,Switzerland,47.1924775,8.476917899999998,4.5,744.0,Migros-Supermarkt - Steinhausen - Zugerland,ChIJMw3MTpgAkEcRO9ii07Yzm-o,,800.0,800.0,800.0,800.0,800.0,800.0,,1900.0,1900.0,1900.0,1900.0,2100.0,1700.0,MIGROS,,,,
"Industriestrasse 15B, 6300 Zug, Switzerland",Industriestrasse 15B,6300,Zug,Zug,Switzerland,47.1733104,8.5181424,3.9,24.0,Klubschule Migros Zug,ChIJXdO2IliqmkcRGVZB3jGBYIc,,800.0,800.0,800.0,800.0,800.0,800.0,,2000.0,2000.0,2000.0,2000.0,1700.0,1200.0,MIGROS,,,,
"Baarerstrasse 53, 6300 Zug, Switzerland",Baarerstrasse 53,6300,Zug,Zug,Switzerland,47.1749082,8.516889800000001,4.3,484.0,Fitnesspark Eichstätte,ChIJx8KWpVmqmkcRd4__mUuiKJg,800.0,600.0,600.0,600.0,600.0,600.0,800.0,2100.0,2300.0,2300.0,2300.0,2300.0,2300.0,2100.0,MIGROS,,,,
"Chamerstrasse 18, 6300 Zug, Switzerland",Chamerstrasse 18,6300,Zug,Zug,Switzerland,47.1720646,8.5112545,4.3,19.0,migrolino Zug,ChIJMUkDAZermkcR4YqioHNbeZs,600.0,600.0,600.0,600.0,600.0,600.0,600.0,2200.0,2200.0,2200.0,2200.0,2200.0,2200.0,2200.0,MIGROS,,,,
"Chollerstrasse 1, 6300 Zug, Switzerland",Chollerstrasse 1,6300,Zug,Zug,Switzerland,47.1826448,8.483980100000002,4.3,132.0,migrolino Zug,ChIJndDuv4IAkEcRq7qtFdZvjLY,600.0,600.0,600.0,600.0,600.0,600.0,600.0,2300.0,2300.0,2300.0,2300.0,2300.0,2300.0,2300.0,MIGROS,,,,
"Baarerstrasse 25, 6300 Zug, Switzerland",Baarerstrasse 25,6300,Zug,Zug,Switzerland,47.1729585,8.516447199999998,3.9,70.0,Migros Bank Niederlassung - Zug,ChIJjx-OZ1iqmkcRaNdGYPd6IIg,,1330.0,900.0,1330.0,900.0,1330.0,,,1700.0,1200.0,1700.0,1200.0,1700.0,,MIGROS,,,,
"Baarerstrasse 22, 6300 Zug, Switzerland",Baarerstrasse 22,6300,Zug,Zug,Switzerland,47.1731333,8.518225200000002,4.3,780.0,Migros-Supermarkt - Zug - Metalli,ChIJo__gbFiqmkcR9x1jTPe_CaI,,800.0,800.0,800.0,800.0,800.0,800.0,,1900.0,1900.0,1900.0,2000.0,1900.0,1700.0,MIGROS,,,,
"Grabenstrasse 5, 6300 Zug, Switzerland",Grabenstrasse 5,6300,Zug,Zug,Switzerland,47.1652756,8.515132,4.3,104.0,Migros-Supermarkt - Zug - Grabenstrasse,ChIJo__gbFiqmkcRmHSpL2C1TQg,,800.0,800.0,800.0,800.0,800.0,800.0,,1900.0,1900.0,1900.0,1900.0,1900.0,1700.0,MIGROS,,,,
"Hertizentrum 10, 6300 Zug, Switzerland",Hertizentrum 10,6300,Zug,Zug,Switzerland,47.17803209999999,8.5059051,4.4,172.0,Migros-Supermarkt - Zug Herti,ChIJP5O8L2eqmkcRIDYDSSgq5D4,,730.0,730.0,730.0,730.0,730.0,730.0,,1900.0,1900.0,1900.0,1900.0,2000.0,1700.0,MIGROS,,,,
"Hinterbergstrasse 40, 6312 Steinhausen, Switzerland",Hinterbergstrasse 40,6312,Steinhausen,Zug,Switzerland,47.1924775,8.476917899999998,4.5,744.0,Migros-Supermarkt - Steinhausen - Zugerland,ChIJMw3MTpgAkEcRO9ii07Yzm-o,,800.0,800.0,800.0,800.0,800.0,800.0,,1900.0,1900.0,1900.0,1900.0,2100.0,1700.0,MIGROS,,,,
"Industriestrasse 15B, 6300 Zug, Switzerland",Industriestrasse 15B,6300,Zug,Zug,Switzerland,47.1733104,8.5181424,3.9,24.0,Klubschule Migros Zug,ChIJXdO2IliqmkcRGVZB3jGBYIc,,800.0,800.0,800.0,800.0,800.0,800.0,,2000.0,2000.0,2000.0,2000.0,1700.0,1200.0,MIGROS,,,,
"Baarerstrasse 53, 6300 Zug, Switzerland",Baarerstrasse 53,6300,Zug,Zug,Switzerland,47.1749082,8.516889800000001,4.3,484.0,Fitnesspark Eichstätte,ChIJx8KWpVmqmkcRd4__mUuiKJg,800.0,600.0,600.0,600.0,600.0,600.0,800.0,2100.0,2300.0,2300.0,2300.0,2300.0,2300.0,2100.0,MIGROS,,,,
"Chamerstrasse 18, 6300 Zug, Switzerland",Chamerstrasse 18,6300,Zug,Zug,Switzerland,47.1720646,8.5112545,4.3,19.0,migrolino Zug,ChIJMUkDAZermkcR4YqioHNbeZs,600.0,600.0,600.0,600.0,600.0,600.0,600.0,2200.0,2200.0,2200.0,2200.0,2200.0,2200.0,2200.0,MIGROS,,,,
"Chollerstrasse 1, 6300 Zug, Switzerland",Chollerstrasse 1,6300,Zug,Zug,Switzerland,47.1826448,8.483980100000002,4.3,132.0,migrolino Zug,ChIJndDuv4IAkEcRq7qtFdZvjLY,600.0,600.0,600.0,600.0,600.0,600.0,600.0,2300.0,2300.0,2300.0,2300.0,2300.0,2300.0,2300.0,MIGROS,,,,
"Baarerstrasse 25, 6300 Zug, Switzerland",Baarerstrasse 25,6300,Zug,Zug,Switzerland,47.1729585,8.516447199999998,3.9,70.0,Migros Bank Niederlassung - Zug,ChIJjx-OZ1iqmkcRaNdGYPd6IIg,,1330.0,900.0,1330.0,900.0,1330.0,,,1700.0,1200.0,1700.0,1200.0,1700.0,,MIGROS,,,,
"Schrofenstrasse 19, 8580 Amriswil",,8580,Amriswil,Zürich,,47.5481986,9.2733516,,,,,,,,,,,,,,,,,,,,M-Migros,90320.0,Aachtal,
"Bahnhofstrasse 2, 8355 Aadorf",,8355,Aadorf,Zürich,,47.490191,8.899659,,,,,,,,,,,,,,,,,,,,M-Migros,93780.0,Aadorf,
"Igelweid 18, 5000 Aarau",,5000,Aarau,Aargau,,47.39173,8.046135,,,,,,,,,,,,,,,,,,,,MM-Migros,34213.0,Aarau - Igelweid,
"Bahnhofplatz 3h, 5000 Aarau",,5000,Aarau,Aargau,,47.391848,8.0528712,,,,,,,,,,,,,,,,,,,,M-Migros,33823.0,Aarau Bahnhof,
"Wiesenbachstrasse 7, 9030 Abtwil SG",,9030,Abtwil,Zürich,,47.4177991,9.3165209,,,,,,,,,,,,,,,,,,,,MM-Migros,90491.0,Abtwil - Säntispark,
"Obgardirain 1, 6043 Adligenswil",,6043,Adligenswil,Luzern,,47.0714902,8.361919,,,,,,,,,,,,,,,,,,,,M-Migros,73340.0,Adligenswil LU,
"Albisstrasse 10, 8134 Adliswil",,8134,Adliswil,Zürich,,47.3111111,8.5252778,,,,,,,,,,,,,,,,,,,,MM-Migros,150062.0,Adliswil,
"Hauptstrasse 95, 4147 Aesch",,4147,Aesch,Basel-Landschaft,,47.4689965,7.5954839,,,,,,,,,,,,,,,,,,,,MM-Migros,24600.0,Aesch,
"Oberdorfstrasse 4, 8910 Affoltern am Albis",,8910,Affoltern,Zürich,,47.2782632,8.4535135,,,,,,,,,,,,,,,,,,,,MM-Migros,150079.0,Affoltern a. A.,
"route d'Agy 2, 1763 Granges-Paccot",,1763,Granges,Fribourg,,46.8208122,7.1540088,,,,,,,,,,,,,,,,,,,,MM-Migros,84360.0,Agy,
"Ch. Sous-le-Grand Pré 4, 1860 Aigle",,1860,Aigle,Vaud,,46.3175551,6.9360255,,,,,,,,,,,,,,,,,,,,MMM-Migros,65100.0,Aigle - Chablais Centre,
"Place de la gare 5, 1860 Aigle",,1860,Aigle,Vaud,,46.316088,6.964893099999999,,,,,,,,,,,,,,,,,,,,M-Migros,63665.0,Aigle gare,
"Spitzwaldstrasse 215, 4123 Allschwil",,4123,Allschwil,Basel-Landschaft,,47.5475645,7.5532678,,,,,,,,,,,,,,,,,,,,MMM-Migros,24720.0,Allschwil - Paradies,
"Baslerstrasse 191, 4123 Allschwil",,4123,Allschwil,Basel-Landschaft,,47.5530644,7.5502509,,,,,,,,,,,,,,,,,,,,M-Migros,23220.0,Allschwil - Ziegelei,
"Lindenplatz 1, 4123 Allschwil",,4123,Allschwil,Basel-Landschaft,,47.55786639999999,7.560574900000001,,,,,,,,,,,,,,,,,,,,Migros-Partner,29530.0,Allschwil-Lindenplatz,
"Gitschenstrasse 14, 6460 Altdorf",,6460,Altdorf,Uri,,46.8796664,8.641610499999999,,,,,,,,,,,,,,,,,,,,M-Migros,73990.0,Altdorf,
"Stossstrasse 2, 9450 Altstätten SG",,9450,Altstätten,Zürich,,47.37710449999999,9.5373227,,,,,,,,,,,,,,,,,,,,MM-Migros,90415.0,Altstätten SG,
"Rütistrasse 10a, 8580 Amriswil",,8580,Amriswil,Zürich,,47.5466163,9.2981099,,,,,,,,,,,,,,,,,,,,MM-Migros,90420.0,Amriswil,
"Weinlandstrasse 4, 8451 Kleinandelfingen",,8451,Kleinandelfingen,Zürich,,47.6019644,8.6887168,,,,,,,,,,,,,,,,,,,,M-Migros,93790.0,Andelfingen,
"Unteres Ziel, 9050 Appenzell",,9050,Appenzell,Zürich,,47.3346022,9.4086941,,,,,,,,,,,,,,,,,,,,MM-Migros,90422.0,Appenzell,
"Via Corogna, 6532 Castione",,6532,Castione,Ticino,,46.2251077,9.0441638,,,,,,,,,,,,,,,,,,,,M-Migros,123780.0,Arbedo Castione,
"St. Gallerstrasse 6, 9320 Arbon",,9320,Arbon,Zürich,,47.5133489,9.4323491,,,,,,,,,,,,,,,,,,,,MM-Migros,90421.0,Arbon,
"Postplatz 7, 4144 Arlesheim",,4144,Arlesheim,Basel-Landschaft,,47.49426099999999,7.6185546,,,,,,,,,,,,,,,,,,,,MM-Migros,24630.0,Arlesheim,
"Via Muraccio 2, 6612 Ascona",,6612,Ascona,Ticino,,46.1542119,8.7738011,,,,,,,,,,,,,,,,,,,,M-Migros,123750.0,Ascona,
"Nollenhornstrasse 9, 9434 Au SG",,9434,Au,Zürich,,47.4311521,9.6380345,,,,,,,,,,,,,,,,,,,,M-Migros,90323.0,Au SG,
"des Fossés-Dessous, 1170 Aubonne",,1170,Aubonne,Vaud,,46.4948658,6.3902017,,,,,,,,,,,,,,,,,,,,Migros-Partner,63102.0,Aubonne,
"Route de Pré-Vert 5, 1580 Avenches",,1580,Avenches,Vaud,,46.8864868,7.0455299,,,,,,,,,,,,,,,,,,,,M-Migros,83810.0,Avenches,
"Route de Matran 9, 1754 Avry-sur-Matran",,1754,Avry,Fribourg,,46.7876479,7.0781119,,,,,,,,,,,,,,,,,,,,MMM-Migros,84710.0,Avry Centre,
"Bahnhofstrasse 5, 6340 Baar",,6340,Baar,Luzern,,47.1955556,8.525,,,,,,,,,,,,,,,,,,,,M-Migros,73850.0,Baar,
"Bahnhofstrasse 2, 7310 Bad Ragaz",,7310,Bad,Graubünden,,47.0033869,9.5013301,,,,,,,,,,,,,,,,,,,,Migros-Partner,90728.0,Bad Ragaz,
"Promenadenstrasse 10, 5330 Bad Zurzach",,5330,Bad,Aargau,,47.5859375,8.2962551,,,,,,,,,,,,,,,,,,,,MM-Migros,34393.0,Bad Zurzach,
"Bahnhofstrasse 40/42, 5400 Baden",,5400,Baden,Aargau,,47.4769437,8.3085122,,,,,,,,,,,,,,,,,,,,MM-Migros,34233.0,Baden - City,
"Goldgasse 13, 4710 Balsthal",,4710,Balsthal,Solothurn,,47.316742,7.695344299999999,,,,,,,,,,,,,,,,,,,,M-Migros,33723.0,Balsthal,
"Allschwilerstrasse 31, 4055 Basel",,4055,Basel,Basel-Stadt,,47.55601,7.573294,,,,,,,,,,,,,,,,,,,,M-Migros,23170.0,Basel - Allschwiler,
"Centralbahnstrasse 10, 4051 Basel",,4051,Basel,Basel-Stadt,,47.5477915,7.5887825,,,,,,,,,,,,,,,,,,,,M-Migros,23900.0,Basel - Bahnhof SBB,
"Birsigstrasse 105, 4054 Basel",,4054,Basel,Basel-Stadt,,47.5500859,7.5783697,,,,,,,,,,,,,,,,,,,,Migros-Partner,29560.0,Basel - Birsigstrasse,
"Burgfelderstrasse 11, 4055 Basel",,4055,Basel,Basel-Stadt,,47.5623944,7.5726274,,,,,,,,,,,,,,,,,,,,MM-Migros,24560.0,Basel - Burgfelder,
"Untere Rebgasse 11, 4058 Basel",,4058,Basel,Basel-Stadt,,47.5617083,7.592391699999999,,,,,,,,,,,,,,,,,,,,MMM-Migros,24240.0,Basel - Claramarkt,
"Aeschenvorstadt 24, 4051 Basel",,4051,Basel,Basel-Stadt,,47.5526875,7.5929774,,,,,,,,,,,,,,,,,,,,MM-Migros,24280.0,Basel - Drachen-Center,
"Münchensteinerstrasse 200, 4053 Basel",,4053,Basel,Basel-Stadt,,47.539343,7.603871000000001,,,,,,,,,,,,,,,,,,,,Migros Fachmarkt,23200.0,Basel - Dreispitz MParc,
"Efringerstrasse 32, 4057 Basel",,4057,Basel,Basel-Stadt,,47.56916349999999,7.5964325,,,,,,,,,,,,,,,,,,,,MM-Migros,23840.0,Basel - Efringer,
"Riehenstrasse 315, 4058 Basel",,4058,Basel,Basel-Stadt,,47.56990589999999,7.615326400000001,,,,,,,,,,,,,,,,,,,,M-Migros,23880.0,Basel - Eglisee,
"Güterstrasse 180, 4053 Basel",,4053,Basel,Basel-Stadt,,47.5435858,7.592101899999999,,,,,,,,,,,,,,,,,,,,MM-Migros,24520.0,Basel - Gundelitor,
"Hardstrasse 105, 4052 Basel",,4052,Basel,Basel-Stadt,,47.5493601,7.607247300000001,,,,,,,,,,,,,,,,,,,,M-Migros,23870.0,Basel - Hardstrasse,
"Inselstrasse 63, 4057 Basel",,4057,Basel,Basel-Stadt,,47.57738639999999,7.590504799999999,,,,,,,,,,,,,,,,,,,,Migros-Partner,29600.0,Basel - Inselstrasse,
"Grenzacherstrasse 62/64, 4058 Basel",,4058,Basel,Basel-Stadt,,47.55872410000001,7.6018015,,,,,,,,,,,,,,,,,,,,M-Migros,23890.0,Basel - Juniors Market,
"Lachenstrasse 1, 4056 Basel",,4056,Basel,Basel-Stadt,,47.5681772,7.569788699999999,,,,,,,,,,,,,,,,,,,,Migros-Partner,29520.0,Basel - Lachenstrasse,
"Eisengasse 12, 4051 Basel",,4051,Basel,Basel-Stadt,,47.55928129999999,7.587763799999999,,,,,,,,,,,,,,,,,,,,M-Migros,23820.0,Basel - Märtplatz,
"Mülhauserstrasse 70-72, 4056 Basel",,4056,Basel,Basel-Stadt,,47.56836329999999,7.5794147,,,,,,,,,,,,,,,,,,,,M-Migros,23720.0,Basel - Mülhauser,
"Neuweilerplatz 7, 4054 Basel",,4054,Basel,Basel-Stadt,,47.5469482,7.564209900000001,,,,,,,,,,,,,,,,,,,,M-Migros,23670.0,Basel - Neuweiler,
"Schützenmattstrasse 27, 4051 Basel",,4051,Basel,Basel-Stadt,,47.5560442,7.581315699999999,,,,,,,,,,,,,,,,,,,,M-Migros,23160.0,Basel - Schützenmatt,
"Hochbergerstrasse 70, 4057 Basel",,4057,Basel,Basel-Stadt,,47.5799457,7.5963342,,,,,,,,,,,,,,,,,,,,M-Migros,23910.0,Basel - Stücki,
"Wanderstrasse 121, 4054 Basel",,4054,Basel,Basel-Stadt,,47.5518918,7.563035299999999,,,,,,,,,,,,,,,,,,,,Migros-Partner,29510.0,Basel - Wanderstrasse,
"Blotzheimerstrasse 61, 4055 Basel",,4055,Basel,Basel-Stadt,,47.5610829,7.564845599999999,,,,,,,,,,,,,,,,,,,,Migros-Partner,29610.0,Basel - Wasgenring,
"Zürcherstrasse 160, 4052 Basel",,4052,Basel,Basel-Stadt,,47.5553278,7.614787799999999,,,,,,,,,,,,,,,,,,,,Migros-Partner,29500.0,Basel - Zürcherstrasse,
"Baltenswilerstrasse 5a, 8303 Bassersdorf",,8303,Bassersdorf,Zürich,,47.44250539999999,8.629882199999999,,,,,,,,,,,,,,,,,,,,MM-Migros,150164.0,Bassersdorf,
"Heinrich - Gujerstrasse 10, 8494 Bauma",,8494,Bauma,Zürich,,47.3680611,8.8777103,,,,,,,,,,,,,,,,,,,,M-Migros,93300.0,Bauma,
"Autoroute A1, Restoroute de Bavois, 1372 Bavois",,1372,Bavois,Vaud,,46.6747222,6.5688889,,,,,,,,,,,,,,,,,,,,Migros-Partner,63142.0,Bavois,
"Wilerstrasse 17, 9602 Bazenheid",,9602,Bazenheid,St. Gallen,,47.4126765,9.0680487,,,,,,,,,,,,,,,,,,,,M-Migros,90380.0,Bazenheid,
"Chemin de Béthléem 7, 1700 Fribourg",,1700,Fribourg,Fribourg,,46.8006093,7.144433299999999,,,,,,,,,,,,,,,,,,,,M-Migros,83670.0,Beauregard,
"route de Lossy 16b, 1782 Belfaux",,1782,Belfaux,Fribourg,,46.8228541,7.1090227,,,,,,,,,,,,,,,,,,,,M-Migros,83850.0,Belfaux,
"Piazza Rinaldo Simen 8, 6500 Bellinzona",,6500,Bellinzona,Ticino,,46.1936129,9.0242741,,,,,,,,,,,,,,,,,,,,MM-Migros,124210.0,Bellinzona - Piazza del Sole,
"Steinbachstrasse 28, 3123 Belp",,3123,Belp,Bern,,46.8965219,7.493174,,,,,,,,,,,,,,,,,,,,MM-Migros,34540.0,Belp,
"Bellikerstrasse 13, 8965 Berikon",,8965,Berikon,Zürich,,47.3635301,8.3658865,,,,,,,,,,,,,,,,,,,,M-Migros,33893.0,Berikon - Mutschellen,
"Schaffhauserstrasse 72, 8222 Beringen",,8222,Beringen,Zürich,,47.6959077,8.5823278,,,,,,,,,,,,,,,,,,,,M-Migros,93700.0,Beringen,
"Bottigenstrasse 7, 3018 Bern",,3018,Bern,Bern,,46.9394199,7.3898398,,,,,,,,,,,,,,,,,,,,MM-Migros,34450.0,Bern - Bachmätteli,
"Bahnhofplatz 10, 3011 Bern",,3011,Bern,Bern,,46.9492666,7.4400441,,,,,,,,,,,,,,,,,,,,MM-Migros,34530.0,Bern - Bahnhof,
"Riedbachstrasse 10, 3027 Bern",,3027,Bern,Bern,,46.947532,7.383285,,,,,,,,,,,,,,,,,,,,MM-Migros,34210.0,Bern - Bethlehem,
"Breitenrainstrasse 11, 3013 Bern",,3013,Bern,Bern,,46.9581627,7.4539235,,,,,,,,,,,,,,,,,,,,M-Migros,33630.0,Bern - Breitenrain,
"Bubenbergplatz 8, 3011 Bern",,3011,Bern,Bern,,46.947689,7.438133099999999,,,,,,,,,,,,,,,,,,,,MM-Migros,34440.0,Bern - Bubenberg,
"Christoffelunterführung, 3011 Bern",,3011,Bern,Bern,,46.94923499999999,7.443910799999999,,,,,,,,,,,,,,,,,,,,M-Migros,33115.0,Bern - Christoffel,
"Egghölzlistrasse 1 / 1a, 3006 Bern",,3006,Bern,Bern,,46.9369856,7.475561300000001,,,,,,,,,,,,,,,,,,,,M-Migros,33140.0,Bern - Egghölzli,
"Seftigenstrasse 1, 3007 Bern",,3007,Bern,Bern,,46.94008119999999,7.431858800000001,,,,,,,,,,,,,,,,,,,,M-Migros,33640.0,Bern - Eigerplatz,
"Giacomettistrasse 15, 3006 Bern",,3006,Bern,Bern,,46.9455765,7.4728372,,,,,,,,,,,,,,,,,,,,MM-Migros,34220.0,Bern - Freudenberg,
"Thunstrasse 18, 3005 Bern",,3005,Bern,Bern,,46.9422743,7.4530603,,,,,,,,,,,,,,,,,,,,M-Migros,33220.0,Bern - Kirchenfeld,
"Dammweg 9, 3013 Bern",,3013,Bern,Bern,,46.95610440000001,7.4466325,,,,,,,,,,,,,,,,,,,,M-Migros,33121.0,Bern - Lorraine,
"Marktgasse 46, 3011 Bern",,3011,Bern,Bern,,46.9482562,7.4450371,,,,,,,,,,,,,,,,,,,,MMM-Migros,34710.0,Bern - Marktgasse,
"Schanzenstrasse 5, 3000 Bern",,3000,Bern,Bern,,46.9479748,7.4363272,,,,,,,,,,,,,,,,,,,,M-Migros,33810.0,Bern - Welle 7,
"Gilberte-de-Courgenay-Platz 4, 3027 Bern",,3027,Bern,Bern,,46.94580029999999,7.3740809,,,,,,,,,,,,,,,,,,,,MM-Migros,34320.0,Bern - Westside,
"Wankdorffeldstrasse 71, 3014 Bern",,3014,Bern,Bern,,46.96580489999999,7.4635238,,,,,,,,,,,,,,,,,,,,MM-Migros,34230.0,Bern - Winkelried,
"Zähringerstrasse 43, 3012 Bern",,3012,Bern,Bern,,46.95519240000001,7.433637,,,,,,,,,,,,,,,,,,,,MM-Migros,34360.0,Bern - Zähringer,
"Thunstrasse 110, 3006 Bern",,3006,Bern,Bern,,46.9414209,7.4658915,,,,,,,,,,,,,,,,,,,,M-Migros,33390.0,Bern Burgernziel,
"Bethlehemstrasse 40, 3027 Bern",,3027,Bern,Bern,,46.9467745,7.3953525,,,,,,,,,,,,,,,,,,,,M-Migros,33820.0,Bern Westflügel,
"Rue Centrale 43-45, 1880 Bex",,1880,Bex,Vaud,,46.2505878,7.0160811,,,,,,,,,,,,,,,,,,,,M-Migros,63640.0,Bex,
"Via Generale Guisan 26, 6710 Biasca",,6710,Biasca,Ticino,,46.3537097,8.9724688,,,,,,,,,,,,,,,,,,,,M-Migros,123620.0,Biasca,
"Hauptstrasse 21, 4562 Biberist",,4562,Biberist,Solothurn,,47.183104,7.561767,,,,,,,,,,,,,,,,,,,,M-Migros,33623.0,Biberist,
"Bahnhofstrasse 15, 2502 Biel/Bienne",,2502,Biel,Bern,,47.1349616,7.244240899999999,,,,,,,,,,,,,,,,,,,,MM-Migros,34480.0,Biel - Bielerhof,
"Schlösslistrasse 7, 2504 Biel/Bienne",,2504,Biel,Bern,,47.15201949999999,7.2673664,,,,,,,,,,,,,,,,,,,,M-Migros,33290.0,Biel - Bözingen,
"Brüggstrasse 5, 2503 Biel/Bienne",,2503,Biel,Bern,,47.1318268,7.2526299,,,,,,,,,,,,,,,,,,,,MM-Migros,34390.0,Biel - Madretsch,
"Kanalgasse 36-38, 2502 Biel/Bienne",,2502,Biel,Bern,,47.140721,7.247539799999999,,,,,,,,,,,,,,,,,,,,MM-Migros,34260.0,Biel - Neumarkt,
"Sportallee 20, 2504 Biel",,2504,Biel,Bern,,53.6155336,10.0017516,,,,,,,,,,,,,,,,,,,,M-Migros,33670.0,Biel Stadion,
"Gorenmattstrasse 17, 4102 Binningen",,4102,Binningen,Basel-Stadt,,47.5324799,7.573050499999999,,,,,,,,,,,,,,,,,,,,MM-Migros,23740.0,Binningen - Gorenmatt,
"Hauptstrasse 71, 4102 Binningen",,4102,Binningen,Basel-Stadt,,47.5413928,7.574175799999999,,,,,,,,,,,,,,,,,,,,M-Migros,24540.0,Binningen - Zentrum,
"Zürcherstrasse 15, 8903 Birmensdorf ZH",,8903,Birmensdorf,Zürich,,47.3543231,8.436797,,,,,,,,,,,,,,,,,,,,M-Migros,150189.0,Birmensdorf,
"Chrischonastrasse 2, 4127 Birsfelden",,4127,Birsfelden,Basel-Landschaft,,47.5553655,7.624048399999999,,,,,,,,,,,,,,,,,,,,MM-Migros,24440.0,Birsfelden,
"Steigstrasse 5, 9220 Bischofszell",,9220,Bischofszell,Zürich,,47.49257249999999,9.2441469,,,,,,,,,,,,,,,,,,,,M-Migros,90363.0,Bischofszell,
"Furkastrasse 88, 3982 Bitsch",,3982,Bitsch,Valais,,46.3878469,8.1170689,,,,,,,,,,,,,,,,,,,,Migros-Partner,137290.0,Bitsch,
"Le Centre, 1145 Bière",,1145,Bière,Vaud,,46.5373765,6.3339687,,,,,,,,,,,,,,,,,,,,Migros-Partner,63110.0,Bière,
"Route du Village 37, 1807 Blonay",,1807,Blonay,Vaud,,46.4652916,6.8952163,,,,,,,,,,,,,,,,,,,,M-Migros,63730.0,Blonay,
"Avenue du Collège 37, 2017 Boudry",,2017,Boudry,Neuchâtel,,46.9509248,6.840777999999999,,,,,,,,,,,,,,,,,,,,M-Migros,83820.0,Boudry,
"Laufenstrasse 4, 4226 Breitenbach",,4226,Breitenbach,Basel-Landschaft,,47.4082502,7.542836299999999,,,,,,,,,,,,,,,,,,,,MM-Migros,24500.0,Breitenbach - Wydehof,
"Zufikerstrasse 2, 5620 Bremgarten AG",,5620,Bremgarten,Aargau,,47.35223879999999,8.3497735,,,,,,,,,,,,,,,,,,,,MM-Migros,34263.0,Bremgarten AG,
"Kalchackerstrasse 9, 3047 Bremgarten b. Bern",,3047,Bremgarten,Bern,,46.9754099,7.4376392,,,,,,,,,,,,,,,,,,,,M-Migros,33750.0,Bremgarten Kalchacker,
"Hauptstrasse 51, 3855 Brienz BE",,3855,Brienz,Bern,,46.7553273,8.0279113,,,,,,,,,,,,,,,,,,,,M-Migros,33780.0,Brienz,
"Belalpstrasse 1, 3900 Brig",,3900,Brig,Valais,,46.3187305,7.989590199999999,,,,,,,,,,,,,,,,,,,,MM-Migros,134540.0,Brig,
"Amp-Strasse 2, 9552 Bronschhofen",,9552,Bronschhofen,Thurgau,,47.4808677,9.0323692,,,,,,,,,,,,,,,,,,,,M-Migros,90392.0,Bronschhofen,
"Neumarkt 1, 5200 Brugg AG",,5200,Brugg,Aargau,,47.4821163,8.2091958,,,,,,,,,,,,,,,,,,,,MMM-Migros,34843.0,Brugg - Neumarkt,
"Bahnhofplatz 19, 6440 Brunnen",,6440,Brunnen,Solothurn,,46.9999228,8.6088524,,,,,,,,,,,,,,,,,,,,M-Migros,73750.0,Brunnen - Bahnhofsmärcht,
"Erlenstrasse 40, 2555 Brügg b. Biel",,2555,Brügg,Bern,,47.1198111,7.267128400000001,,,,,,,,,,,,,,,,,,,,MMM-Migros,34730.0,Brügg - Centre Brügg,
"Grüngenstrasse 1, 4416 Bubendorf",,4416,Bubendorf,Basel-Landschaft,,47.4570236,7.742901799999999,,,,,,,,,,,,,,,,,,,,MM-Migros,23790.0,Bubendorf,
"Unterdorfstrasse, 6033 Buchrain",,6033,Buchrain,Aargau,,47.095469,8.3487779,,,,,,,,,,,,,,,,,,,,M-Migros,73200.0,Buchrain - Tschannhof,
"Bresteneggstrasse 9b, 5033 Buchs AG",,5033,Buchs,Aargau,,47.3844936,8.0888236,,,,,,,,,,,,,,,,,,,,MMM-Migros,34823.0,Buchs AG - Wynecenter,
"Churerstrasse 10, 9470 Buchs SG",,9470,Buchs,Zürich,,47.1639433,9.4727375,,,,,,,,,,,,,,,,,,,,MM-Migros,90424.0,Buchs SG,
"Ennetbürgerstrasse 45, 6374 Buochs",,6374,Buochs,Nidwalden,,46.9777728,8.4155374,,,,,,,,,,,,,,,,,,,,M-Migros,73220.0,Buochs,
"Lyssachstrasse 27, 3400 Burgdorf",,3400,Burgdorf,Bern,,47.0590812,7.6210778,,,,,,,,,,,,,,,,,,,,MM-Migros,34200.0,Burgdorf - Neumarkt,
"Rue de la Gare 2, 1030 Bussigny-Lausanne",,1030,Bussigny,Vaud,,46.54753590000001,6.5530244,,,,,,,,,,,,,,,,,,,,MM-Migros,64330.0,Bussigny,
"Bahnhofstrasse 28, 8180 Bülach",,8180,Bülach,Zürich,,47.5211491,8.540004099999999,,,,,,,,,,,,,,,,,,,,MM-Migros,150059.0,Bülach - Sonnenhof,
"Feldstrasse 85, 8180 Bülach",,8180,Bülach,Zürich,,47.5096554,8.5398055,,,,,,,,,,,,,,,,,,,,MMM-Migros,150203.0,Bülach Süd,
"Gotthardstrasse 67, 6460 Altdorf UR",,6460,Altdorf,Uri,,46.8727302,8.6513767,,,,,,,,,,,,,,,,,,,,MM-Migros,74310.0,Bürglen/Altdorf - Urnertor,
"Landstrasse 41, 9606 Bütschwil",,9606,Bütschwil,St. Gallen,,47.3631945,9.0732008,,,,,,,,,,,,,,,,,,,,M-Migros,90373.0,Bütschwil,
"Via Campagna Adorna, 6850 Mendrisio",,6850,Mendrisio,Ticino,,45.8628727,8.972436799999999,,,,,,,,,,,,,,,,,,,,M-Migros,123840.0,Campagna Adorna,
"Rue du Marché 16, 1227 Carouge GE",,1227,Carouge,Genève,,46.1833862,6.1411054,,,,,,,,,,,,,,,,,,,,M-Migros,44090.0,Carouge,
"Rue Gustave-Revilliod 4, 1227 Carouge GE",,1227,Carouge,Genève,,46.1914249,6.1376403,,,,,,,,,,,,,,,,,,,,M-Migros,44010.0,Carouge - Acacias,
"Avenue Vibert 29, 1227 Carouge GE",,1227,Carouge,Genève,,46.18244230000001,6.134388,,,,,,,,,,,,,,,,,,,,MM-Migros,44950.0,Carouge - Vibert,
"Via Stazione 80, 6987 Caslano",,6987,Caslano,Ticino,,45.9771965,8.8764402,,,,,,,,,,,,,,,,,,,,M-Migros,123880.0,Caslano,
"Viale Castagnola 21, 6900 Lugano",,6900,Lugano,Ticino,,46.0064401,8.965552299999999,,,,,,,,,,,,,,,,,,,,MM-Migros,124290.0,Cassarate,
"Route de Pra-Riond 2, 1635 La Tour-de-Trême",,1635,La,Fribourg,,46.6003638,7.0762323,,,,,,,,,,,,,,,,,,,,MM-Migros,84340.0,Centre la Tour,
"Via Lugano 21, 6982 Agno",,6982,Agno,Ticino,,45.998836,8.9057148,,,,,,,,,,,,,,,,,,,,MMM-Migros,124300.0,Centro Agno,
"Via Serrai 5, 6592 S. Antonino",,6592,S,Ticino,,46.1539142,8.9617119,,,,,,,,,,,,,,,,,,,,MMM-Migros,125020.0,Centro S.Antonino,
"Rue Comble-Emine 5, 2053 Cernier",,2053,Cernier,Neuchâtel,,47.0580556,6.9019444,,,,,,,,,,,,,,,,,,,,MM-Migros,83730.0,Cernier,
"Zugerstrasse 15/17, 6330 Cham",,6330,Cham,Luzern,,47.18240730000001,8.461297,,,,,,,,,,,,,,,,,,,,M-Migros,73740.0,Cham - Neudorf,
"Chemin Neuf 2, 1955 Chamoson",,1955,Chamoson,Valais,,46.2019632,7.223365500000001,,,,,,,,,,,,,,,,,,,,Migros-Partner,137235.0,Chamoson,
"Rue de la Charrière 71, 2300 La Chaux-de-Fonds",,2300,La,Neuchâtel,,47.1120674,6.8346993,,,,,,,,,,,,,,,,,,,,M-Migros,83950.0,Charrière,
"Avenue du Tir-Fédéral 12, 1022 Chavannes-Renens",,1022,Chavannes,Vaud,,46.5363981,6.576380200000001,,,,,,,,,,,,,,,,,,,,M-Migros,64320.0,Chavannes - Renens,
"Avenue de la Gare 84, 1022 Chavannes-près-Renens",,1022,Chavannes,Vaud,,46.53007710000001,6.5726299,,,,,,,,,,,,,,,,,,,,M-Migros,63675.0,Chavannes les Cèdres,
"Via Bernardino Luini, 6830 Chiasso",,6830,Chiasso,Ticino,,45.8379301,9.0239177,,,,,,,,,,,,,,,,,,,,M-Migros,123640.0,Chiasso - Boffalora,
"Pargherastrasse 1-3, 7000 Chur",,7000,Chur,Graubünden,,46.8461265,9.5137214,,,,,,,,,,,,,,,,,,,,MM-Migros,90425.0,Chur - Calandapark,
"Gäuggelistrasse 28, 7000 Chur",,7000,Chur,Graubünden,,46.8519657,9.5274357,,,,,,,,,,,,,,,,,,,,MM-Migros,90427.0,Chur - Gäuggeli,
"Ringstrasse 91, 7000 Chur",,7000,Chur,Graubünden,,46.8577523,9.5209603,,,,,,,,,,,,,,,,,,,,M-Migros,90334.0,Chur - Ringstrasse,
"Masanserstrasse 240, 7000 Chur",,7000,Chur,Graubünden,,46.8713252,9.5345596,,,,,,,,,,,,,,,,,,,,M-Migros,90389.0,Chur Masans,
"Hauptstrasse 146, 7075 Churwalden",,7075,Churwalden,Graubünden,,46.7779744,9.5437795,,,,,,,,,,,,,,,,,,,,M-Migros,90384.0,Churwalden,
"Rte de Montreux 56, 1618 Châtel-St-Denis",,1618,Châtel,Fribourg,,46.5241343,6.905133699999999,,,,,,,,,,,,,,,,,,,,MM-Migros,84330.0,Châtel-St-Denis,
"Place de la Gare 2, 1225 Chêne-Bourg",,1225,Chêne,Genève,,46.1962178,6.1954946,,,,,,,,,,,,,,,,,,,,MM-Migros,44020.0,Chêne-Vert,
"Rue du Léman 9, 1815 Clarens",,1815,Clarens,Vaud,,46.4404128,6.8932376,,,,,,,,,,,,,,,,,,,,M-Migros,63991.0,Clarens - Centre,
"Entre-deux-Fossaux, 1868 Collombey",,1868,Collombey,Valais,,46.2661263,6.9569114,,,,,,,,,,,,,,,,,,,,MM-Migros,134520.0,Collombey,
"Route de Thonon 55, 1245 Collonge-Bellerive",,1245,Collonge,Genève,,46.2405653,6.1989809,,,,,,,,,,,,,,,,,,,,MM-Migros,44880.0,Collonge-Bellerive - Vésenaz,
"Avenue de la Gare 16, 2013 Colombier NE",,2013,Colombier,Neuchâtel,,46.9664748,6.855218799999999,,,,,,,,,,,,,,,,,,,,M-Migros,83770.0,Colombier,
"Route des Rottes 15, 1964 Conthey",,1964,Conthey,Valais,,46.223539,7.300943,,,,,,,,,,,,,,,,,,,,MMM-Migros,136411.0,Conthey - Forum des Alpes,
"Rue du centre 4, 1752 Villars-sur-Glâne",,1752,Villars,Fribourg,,46.79346400000001,7.1336463,,,,,,,,,,,,,,,,,,,,M-Migros,83780.0,Cormanon,
"Chemin de Ronzi 2, 2016 Cortaillod",,2016,Cortaillod,Neuchâtel,,46.9442965,6.8429552,,,,,,,,,,,,,,,,,,,,M-Migros,83890.0,Cortaillod,
"Route des Chavannes 1, 1304 Cossonay-Ville",,1304,Cossonay,Vaud,,46.6136661,6.5066383,,,,,,,,,,,,,,,,,,,,M-Migros,63680.0,Cossonay,
"Route de l'Industrie 25, 1784 Courtepin",,1784,Courtepin,Fribourg,,46.8656091,7.1201468,,,,,,,,,,,,,,,,,,,,M-Migros,83630.0,Courtepin,
"Rue du Grand-Place 7, 3964 Crans-Montana",,3964,Crans,Valais,,46.3064996,7.4678894,,,,,,,,,,,,,,,,,,,,Migros-Partner,137204.0,Crans,
"Route du Rawyl 32, 3963 Crans-Montana",,3963,Crans,Valais,,46.3093669,7.473028299999999,,,,,,,,,,,,,,,,,,,,M-Migros,133920.0,Crans-Montana,
"Chemin du Closalet 7, 1023 Crissier",,1023,Crissier,Vaud,,46.55433499999999,6.5691301,,,,,,,,,,,,,,,,,,,,MMM-Migros,65000.0,Crissier,
"Via San Gottardo 150, 6942 Savosa",,6942,Savosa,Ticino,,46.0164975,8.941312199999999,,,,,,,,,,,,,,,,,,,,M-Migros,123630.0,Crocifisso di Savosa,
"Route de Bottens 1, 1053 Cugy VD",,1053,Cugy,Vaud,,46.5854124,6.6398774,,,,,,,,,,,,,,,,,,,,M-Migros,63720.0,Cugy,
"Baselstrasse 7, 6252 Dagmersellen",,6252,Dagmersellen,Luzern,,47.2131203,7.988489400000001,,,,,,,,,,,,,,,,,,,,M-Migros,73960.0,Dagmersellen,
"Zollstrasse 6, 8005 Zürich",,8005,Zürich,Zürich,,47.3798176,8.5369492,,,,,,,,,,,,,,,,,,,,Daily,150362.0,Daily Zürich-Zollstrasse,
"Promenade 105, 7270 Davos Platz",,7270,Davos,Graubünden,,46.7947955,9.8162434,,,,,,,,,,,,,,,,,,,,MM-Migros,90432.0,Davos Symondpark,
"Promenade 146, 7260 Davos Dorf",,7260,Davos,Graubünden,,46.7757476,9.8997731,,,,,,,,,,,,,,,,,,,,M-Migros,90333.0,Davos-Dorf,
"Hauptstrasse 81, 9113 Degersheim",,9113,Degersheim,Zürich,,47.3724131,9.1963359,,,,,,,,,,,,,,,,,,,,M-Migros,90314.0,Degersheim,
"Rue de la Maltière 12, 2800 Delémont",,2800,Delémont,Jura,,47.3632735,7.346107499999999,,,,,,,,,,,,,,,,,,,,MM-Migros,24320.0,Delémont,
"Hauptstrasse 22, 4552 Derendingen",,4552,Derendingen,Solothurn,,47.1973593,7.5838776,,,,,,,,,,,,,,,,,,,,M-Migros,33773.0,Derendingen,
"Ruchwiesenstrasse 2, 8157 Dielsdorf",,8157,Dielsdorf,Zürich,,47.4805972,8.464537,,,,,,,,,,,,,,,,,,,,MM-Migros,150149.0,Dielsdorf,
"Hintere Kirchstrasse 1, 9444 Diepoldsau",,9444,Diepoldsau,Zürich,,47.38573090000001,9.656216,,,,,,,,,,,,,,,,,,,,M-Migros,90327.0,Diepoldsau,
"Bahnhofstrasse 15, 8253 Diessenhofen",,8253,Diessenhofen,Zürich,,47.6860018,8.7522015,,,,,,,,,,,,,,,,,,,,M-Migros,93620.0,Diessenhofen,
"Überlandstrasse 22, 8953 Dietikon",,8953,Dietikon,Zürich,,47.4091846,8.4050919,,,,,,,,,,,,,,,,,,,,M-Migros,150130.0,Dietikon - Limmatfeld,
"Löwenstrasse 28, 8953 Dietikon",,8953,Dietikon,Zürich,,47.4050615,8.4021644,,,,,,,,,,,,,,,,,,,,MM-Migros,150065.0,Dietikon - Löwenzentrum,
"Riedstrasse 3, 8953 Dietikon",,8953,Dietikon,Zürich,,47.4200148,8.393833599999999,,,,,,,,,,,,,,,,,,,,MM-Migros,150307.0,Dietikon Silbern,
"Pappelstrasse 2, 8305 Dietlikon",,8305,Dietlikon,Zürich,,47.4192148,8.621573399999999,,,,,,,,,,,,,,,,,,,,M-Migros,150169.0,Dietlikon - Brunnenwiese,Geschlossen
"Via La Val 1, 7013 Domat/Ems",,7013,Domat,Graubünden,,46.8374898,9.4653662,,,,,,,,,,,,,,,,,,,,M-Migros,90381.0,Domat-Ems,
"Grand-Rhain 54, 1564 Domdidier",,1564,Domdidier,Fribourg,,46.8653808,7.009378700000001,,,,,,,,,,,,,,,,,,,,M-Migros,83940.0,Domdidier,
"Wollmattweg 7, 4143 Dornach",,4143,Dornach,Basel-Landschaft,,47.4882089,7.611779899999999,,,,,,,,,,,,,,,,,,,,M-Migros,23620.0,Dornach,
"Ziegeleiplatz 2, 8406 Dättnau",,8406,Dättnau,Zürich,,47.4773023,8.6993628,,,,,,,,,,,,,,,,,,,,M-Migros,93870.0,Dättnau,
"Hauptstrasse 17, 5312 Döttingen",,5312,Döttingen,Aargau,,47.57653579999999,8.2284268,,,,,,,,,,,,,,,,,,,,M-Migros,33743.0,Döttingen,
"Unterdorfstrasse 7, 8600 Dübendorf",,8600,Dübendorf,Zürich,,47.3982642,8.617610899999999,,,,,,,,,,,,,,,,,,,,MM-Migros,150054.0,Dübendorf,
"Neugutstrasse 83, 8600 Dübendorf",,8600,Dübendorf,Zürich,,47.4014347,8.6034625,,,,,,,,,,,,,,,,,,,,Migros Fachmarkt,150148.0,Dübendorf - Hochbord Nord,
"Am Stadtrand 5, 8600 Dübendorf",,8600,Dübendorf,Zürich,,47.396978,8.5969961,,,,,,,,,,,,,,,,,,,,M-Migros,150082.0,Dübendorf Stettbach,
"Käsereistrasse 3, 3186 Düdingen",,3186,Düdingen,Bern,,46.8470441,7.191617699999999,,,,,,,,,,,,,,,,,,,,MM-Migros,84320.0,Düdingen,
"Zentralstrasse 16, 6030 Ebikon",,6030,Ebikon,Aargau,,47.0809819,8.3408153,,,,,,,,,,,,,,,,,,,,MM-Migros,74300.0,Ebikon - Ladengasse,
"Ebisquare-Strasse 1, 6030 Ebikon",,6030,Ebikon,Aargau,,47.0935816,8.357506500000001,,,,,,,,,,,,,,,,,,,,MMM-Migros,74400.0,Ebikon - Mall of Switzerland,
"Zürichstrasse 108, 8123 Ebmatingen",,8123,Ebmatingen,Zürich,,47.350869,8.643211599999999,,,,,,,,,,,,,,,,,,,,M-Migros,150170.0,Ebmatingen,
"Kapplerstrasse 16, 9642 Ebnat-Kappel",,9642,Ebnat,St. Gallen,,47.2760513,9.1074422,,,,,,,,,,,,,,,,,,,,M-Migros,90368.0,Ebnat-Kappel,
"Rue de Praz-Palud 2, 1040 Echallens",,1040,Echallens,Vaud,,46.638967,6.6357975,,,,,,,,,,,,,,,,,,,,MM-Migros,63620.0,Echallens,
"chemin du Croset 7, 1024 Ecublens",,1024,Ecublens,Vaud,,46.5340101,6.56442,,,,,,,,,,,,,,,,,,,,MM-Migros,63690.0,Ecublens - Croset,
"Louis Favre 8A, 1024 Ecublens VD",,1024,Ecublens,Vaud,,46.5229627,6.565703,,,,,,,,,,,,,,,,,,,,M-Migros,63910.0,Ecublens - EPFL,
"Märtplatz 5, 8307 Effretikon",,8307,Effretikon,Zürich,,47.4288561,8.6849426,,,,,,,,,,,,,,,,,,,,MM-Migros,94290.0,Effretikon - Effi-Märt,
"Hausimollstrasse 1, 4622 Egerkingen",,4622,Egerkingen,Solothurn,,47.3178558,7.8019051,,,,,,,,,,,,,,,,,,,,MM-Migros,34413.0,Egerkingen - Gäupark,
"Gewerbestrasse 2-10, 8132 Egg",,8132,Egg,Zürich,,47.3026244,8.6913103,,,,,,,,,,,,,,,,,,,,MM-Migros,150074.0,Egg,
"Bauelenzelgstrasse 16, 8193 Eglisau",,8193,Eglisau,Zürich,,47.580353,8.5129016,,,,,,,,,,,,,,,,,,,,M-Migros,150078.0,Eglisau-Nord,
"Grossmatt 1, 6243 Egolzwil",,6243,Egolzwil,Luzern,,47.1828404,7.9841065,,,,,,,,,,,,,,,,,,,,M-Migros,73870.0,Egolzwil - Schötz,
"Eisenbahnstrasse 2, 8840 Einsiedeln",,8840,Einsiedeln,Schwyz,,47.1287165,8.7460364,,,,,,,,,,,,,,,,,,,,MM-Migros,150068.0,Einsiedeln,
"St. Gallerstrasse 16, 8353 Elgg",,8353,Elgg,Zürich,,47.49832319999999,8.861620499999999,,,,,,,,,,,,,,,,,,,,M-Migros,93840.0,Elgg,
"Bülacherstrasse 17, 8424 Embrach",,8424,Embrach,Zürich,,47.5101605,8.591849999999999,,,,,,,,,,,,,,,,,,,,MM-Migros,94320.0,Embrach,
"Kapfstrasse 3, 6020 Emmenbrücke",,6020,Emmenbrücke,Aargau,,47.0896964,8.2737122,,,,,,,,,,,,,,,,,,,,M-Migros,73680.0,Emmen - Kapf,
"Seetalstrasse 50, 6020 Emmenbrücke",,6020,Emmenbrücke,Aargau,,47.0744868,8.2927271,,,,,,,,,,,,,,,,,,,,MM-Migros,74390.0,Emmen - Wohncenter,
"Sonnenplatz 1, 6020 Emmenbrücke",,6020,Emmenbrücke,Aargau,,47.0779516,8.2752688,,,,,,,,,,,,,,,,,,,,MM-Migros,74350.0,Emmenbrücke - Sonnenplatz,
"Klosterstrasse 5, 6390 Engelberg",,6390,Engelberg,Luzern,,46.820706,8.405717,,,,,,,,,,,,,,,,,,,,M-Migros,73890.0,Engelberg,
"Place de la Croix-Blanche 11, 1066 Epalinges",,1066,Epalinges,Vaud,,46.548481,6.670927,,,,,,,,,,,,,,,,,,,,MM-Migros,63940.0,Epalinges,
"Scex-Riond / CP 48, 1976 Erde",,1976,Erde,Valais,,46.23790409999999,7.292589899999999,,,,,,,,,,,,,,,,,,,,Migros-Partner,137244.0,Erde,
"Bahnhofstrasse 42, 8703 Erlenbach ZH",,8703,Erlenbach,Zürich,,47.3070228,8.590430999999999,,,,,,,,,,,,,,,,,,,,M-Migros,150185.0,Erlenbach - Erlibacher Märt,
"Zentrum Rössli, 5018 Erlinsbach AG",,5018,Erlinsbach,Aargau,,47.4057159,8.0082722,,,,,,,,,,,,,,,,,,,,M-Migros,33123.0,Erlinsbach,
"Gotthardstrasse 144, 6472 Erstfeld",,6472,Erstfeld,Uri,,46.825152,8.650065999999999,,,,,,,,,,,,,,,,,,,,M-Migros,73180.0,Erstfeld,
"Essanestrasse 42, 9492 Eschen",,9492,Eschen,Zürich,,47.208946,9.525885,,,,,,,,,,,,,,,,,,,,Migros-Partner,90725.0,Eschen,
"Rickenstrasse 12, 8733 Eschenbach",,8733,Eschenbach,Zürich,,47.2409518,8.9240392,,,,,,,,,,,,,,,,,,,,M-Migros,150160.0,Eschenbach,
"Route de la Chapelle 24, 1470 Estavayer-le-Lac",,1470,Estavayer,Fribourg,,46.8481276,6.851435899999999,,,,,,,,,,,,,,,,,,,,MM-Migros,63630.0,Estavayer-le-Lac,
"Route Suisse 26, 1163 Etoy",,1163,Etoy,Vaud,,46.47363379999999,6.4259398,,,,,,,,,,,,,,,,,,,,M-Migros,63900.0,Etoy,
"Therwilerstrasse 9, 4107 Ettingen",,4107,Ettingen,Basel-Landschaft,,47.4849438,7.547403900000001,,,,,,,,,,,,,,,,,,,,MM-Migros,24610.0,Ettingen,
"Landstrasse 20, 9496 Balzers",,9496,Balzers,Zürich,,47.0752919,9.5121868,,,,,,,,,,,,,,,,,,,,Migros-Partner,90718.0,FL - Balzers,
"Landstrasse 33, 9491 Ruggell",,9491,Ruggell,Zürich,,47.2392642,9.5234668,,,,,,,,,,,,,,,,,,,,Migros-Partner,90724.0,FL - Ruggell,
"Hintergasse 12, 5615 Fahrwangen",,5615,Fahrwangen,Aargau,,47.294263,8.2438793,,,,,,,,,,,,,,,,,,,,M-Migros,33903.0,Fahrwangen,
"Via Pian della Croce, 6760 Faido",,6760,Faido,Ticino,,46.4778814,8.8002652,,,,,,,,,,,,,,,,,,,,M-Migros,123700.0,Faido,
"Grundstrasse 4, 8320 Fehraltorf",,8320,Fehraltorf,Zürich,,47.3866862,8.7556165,,,,,,,,,,,,,,,,,,,,M-Migros,93800.0,Fehraltorf,
"Furkastrasse 46, 3984 Fiesch",,3984,Fiesch,Valais,,46.4040003,8.135566899999999,,,,,,,,,,,,,,,,,,,,M-Migros,136465.0,Fiesch,
"Badenerstrasse 7d, 5442 Fislisbach",,5442,Fislisbach,Aargau,,47.4361177,8.2897316,,,,,,,,,,,,,,,,,,,,M-Migros,33843.0,Fislisbach,
"Bernstrasse 36, 3175 Flamatt",,3175,Flamatt,Bern,,46.8896931,7.3191353,,,,,,,,,,,,,,,,,,,,M-Migros,84350.0,Flamatt,
"Magdenauerstrasse 10, 9230 Flawil",,9230,Flawil,Zürich,,47.4128303,9.1861496,,,,,,,,,,,,,,,,,,,,MM-Migros,90431.0,Flawil,
"Grand-Rue 27, 2114 Fleurier",,2114,Fleurier,Neuchâtel,,46.9018813,6.5805979,,,,,,,,,,,,,,,,,,,,MM-Migros,83700.0,Fleurier,
"Lochrietstrasse 27, 8890 Flums",,8890,Flums,Zürich,,47.0981242,9.3534814,,,,,,,,,,,,,,,,,,,,M-Migros,90325.0,Flums,
"Langfeldstrasse 53a, 8500 Frauenfeld",,8500,Frauenfeld,Zürich,,47.565592,8.90503,,,,,,,,,,,,,,,,,,,,M-Migros,93600.0,Frauenfeld - Multiplex,
"Bahnhofplatz 72, 8500 Frauenfeld",,8500,Frauenfeld,Zürich,,47.5572283,8.896273599999999,,,,,,,,,,,,,,,,,,,,MM-Migros,94330.0,Frauenfeld - Passage,
"Zürcherstrasse 227, 8500 Frauenfeld",,8500,Frauenfeld,Zürich,,47.5596816,8.9009743,,,,,,,,,,,,,,,,,,,,M-Migros,93640.0,Frauenfeld - Zeughausstrasse,
"Hauptstrasse 44, 5070 Frick",,5070,Frick,Aargau,,47.5079295,8.0195359,,,,,,,,,,,,,,,,,,,,M-Migros,33753.0,Frick,
"Kanderstegstrasse 31, 3714 Frutigen",,3714,Frutigen,Bern,,46.5855778,7.648425700000001,,,,,,,,,,,,,,,,,,,,M-Migros,33370.0,Frutigen,
"Rue de Provence 4, 1926 Fully",,1926,Fully,Valais,,48.8741725,2.3416739,,,,,,,,,,,,,,,,,,,,M-Migros,133710.0,Fully,
"Unterdorfstrasse 2, 8117 Fällanden",,8117,Fällanden,Zürich,,47.3736129,8.641097499999999,,,,,,,,,,,,,,,,,,,,M-Migros,150153.0,Fällanden,
"Ergolzstrasse 2, 4414 Füllinsdorf",,4414,Füllinsdorf,Basel-Landschaft,,47.5027803,7.725253899999999,,,,,,,,,,,,,,,,,,,,MM-Migros,24480.0,Füllinsdorf - Schönthal,
"Rue Louis-d'Affry 2, 1701 Fribourg",,1701,Fribourg,Fribourg,,46.8036885,7.1501989,,,,,,,,,,,,,,,,,,,,M-Migros,83980.0,Gare Fribourg,
"Place de la Gare, 1630 Bulle",,1630,Bulle,Fribourg,,46.619673,7.0540501,,,,,,,,,,,,,,,,,,,,M-Migros,83871.0,Gare de Bulle,
"Rue Sonnex 20, 1218 Le Grand-Saconnex",,1218,Le,Genève,,46.2289525,6.1198016,,,,,,,,,,,,,,,,,,,,M-Migros,44340.0,Gd Saconnex - Le Pommier,
"Wambisterstrasse, 5412 Gebenstorf",,5412,Gebenstorf,Aargau,,47.4899937,8.2448256,,,,,,,,,,,,,,,,,,,,M-Migros,33393.0,Gebenstorf,
"Badweg 2, 4460 Gelterkinden",,4460,Gelterkinden,Basel-Landschaft,,47.4659608,7.8506119,,,,,,,,,,,,,,,,,,,,MM-Migros,24460.0,Gelterkinden,
"Avenue Louis-Casaï 27, 1211 Genève 28",,1211,Genève,Genève,,46.2179335,6.115013299999999,,,,,,,,,,,,,,,,,,,,MMM-Migros,44030.0,Genève - Balexert,
"Avenue de Champel 61, 1206 Genève",,1206,Genève,Genève,,46.1908333,6.1525,,,,,,,,,,,,,,,,,,,,MM-Migros,44110.0,Genève - Champel,Geschlossen
"Promenade de l'Europe 11, 1203 Genève",,1203,Genève,Genève,,46.2083403,6.1244964,,,,,,,,,,,,,,,,,,,,MM-Migros,44140.0,Genève - Charmilles,
"Route de l'Aéroport 25, 1215 Genève 15 Aéroport",,1215,Genève,Genève,,46.2356529,6.1154265,,,,,,,,,,,,,,,,,,,,M-Migros,44060.0,Genève - Cointrin Aéroport,
"Place de Cornavin 3-7, 1201 Genève",,1201,Genève,Genève,,46.21078199999999,6.143300600000001,,,,,,,,,,,,,,,,,,,,M-Migros,44180.0,Genève - Cornavin Gare,
"Rue des Eaux-Vives 17-19, 1207 Genève",,1207,Genève,Genève,,46.2038354,6.157697199999999,,,,,,,,,,,,,,,,,,,,MM-Migros,44250.0,Genève - Eaux-Vives,
"Place de la Fusterie 7, 1204 Genève",,1204,Genève,Genève,,46.203928,6.146198999999999,,,,,,,,,,,,,,,,,,,,M-Migros,44290.0,Genève - Fusterie M-Express,
"Boulevard Carl-Vogt 6, 1205 Genève",,1205,Genève,Genève,,46.20078900000001,6.130622,,,,,,,,,,,,,,,,,,,,MM-Migros,44350.0,Genève - Jonction,
"Rue de Lausanne 18-20, 1201 Genève",,1201,Genève,Genève,,46.2112558,6.144636999999999,,,,,,,,,,,,,,,,,,,,MM-Migros,44450.0,Genève - Les Cygnes,
"Rue des Paquis 41, 1201 Genève",,1201,Genève,Genève,,46.2123628,6.149683,,,,,,,,,,,,,,,,,,,,MM-Migros,44430.0,Genève - Navigation,
"Rue de Carouge 64, 1205 Genève",,1205,Genève,Genève,,46.1928795,6.1428031,,,,,,,,,,,,,,,,,,,,MM-Migros,44230.0,Genève - Plainpalais,
"Route de Florissant 86, 1206 Genève",,1206,Genève,Genève,,46.1919901,6.164036500000001,,,,,,,,,,,,,,,,,,,,MM-Migros,44730.0,Genève - Rieu,
"Chemin de la Tourelle 2-4, 1209 Genève",,1209,Genève,Genève,,46.2245134,6.1262228,,,,,,,,,,,,,,,,,,,,M-Migros,44840.0,Genève - Tourelle,
"Rue du Vidollet 5, 1202 Genève",,1202,Genève,Genève,,46.2163274,6.1395987,,,,,,,,,,,,,,,,,,,,M-Migros,44890.0,Genève - Vidollet,
"Rue de la Terrassière 29, 1207 Genève",,1207,Genève,Genève,,46.2007406,6.1589277,,,,,,,,,,,,,,,,,,,,MM-Migros,44900.0,Genève - Villereuse,
"Friedhofstrasse 1, 4563 Gerlafingen",,4563,Gerlafingen,Solothurn,,47.1709012,7.574156200000001,,,,,,,,,,,,,,,,,,,,M-Migros,33643.0,Gerlafingen,
"Via Bellinzona 33, 6512 Giubiasco",,6512,Giubiasco,Ticino,,46.1784152,9.0138786,,,,,,,,,,,,,,,,,,,,M-Migros,123740.0,Giubiasco - Alle Bolle,
"Rue de Mauverney 22, 1196 Gland",,1196,Gland,Vaud,,46.4171065,6.2760339,,,,,,,,,,,,,,,,,,,,M-Migros,44300.0,Gland,
"Schweizerhofstrasse 6, 8750 Glarus",,8750,Glarus,Zürich,,47.0405467,9.0709422,,,,,,,,,,,,,,,,,,,,MM-Migros,150064.0,Glarus - Zentrum Glärnisch,
"Wallisellerstrasse 8, 8152 Glattbrugg",,8152,Glattbrugg,Zürich,,47.43425310000001,8.5677252,,,,,,,,,,,,,,,,,,,,M-Migros,150056.0,Glattbrugg,
"Kantonsstrasse 58, 3902 Glis",,3902,Glis,Valais,,46.3089003,7.9693461,,,,,,,,,,,,,,,,,,,,MMM-Migros,136401.0,Glis - Simplon,
"Ulrich-Rösch-Strasse 5, 9403 Goldach",,9403,Goldach,Zürich,,47.4747401,9.4677754,,,,,,,,,,,,,,,,,,,,M-Migros,90375.0,Goldach,
"Parkstrasse 25, 6410 Goldau",,6410,Goldau,Schwyz,,47.0509981,8.551331099999999,,,,,,,,,,,,,,,,,,,,M-Migros,73790.0,Goldau,
"St. Gallerstrasse 115, 9200 Gossau SG",,9200,Gossau,Zürich,,47.417829,9.2564672,,,,,,,,,,,,,,,,,,,,MM-Migros,90433.0,Gossau,
"Stadtbühlstrasse 12, 9200 Gossau SG",,9200,Gossau,Zürich,,47.4122665,9.2503601,,,,,,,,,,,,,,,,,,,,M-Migros,90313.0,Gossau - Stadtbühlpark,
"Im Zentrum 3, 8625 Gossau ZH",,8625,Gossau,Zürich,,47.3068724,8.757840999999999,,,,,,,,,,,,,,,,,,,,M-Migros,150182.0,Gossau ZH,
"Staatsstrasse 89, 9472 Grabs",,9472,Grabs,Zürich,,47.1803303,9.4474441,,,,,,,,,,,,,,,,,,,,Migros-Partner,90736.0,Grabs,
"Chemin de la Gradelle 10, 1224 Chêne-Bougeries",,1224,Chêne,Genève,,46.2053517,6.1819466,,,,,,,,,,,,,,,,,,,,M-Migros,44360.0,Gradelle,
"Via Cantonale 28, 6916 Grancia",,6916,Grancia,Ticino,,45.9706231,8.9262944,,,,,,,,,,,,,,,,,,,,M-Migros,123790.0,Grancia,
"Av. des Communes-Réunies 52, 1212 Grand-Lancy",,1212,Grand,Genève,,46.1750984,6.122196600000001,,,,,,,,,,,,,,,,,,,,MM-Migros,44550.0,Grand-Lancy - Palettes,
"Rue de Combamare 21, 2025 Chez-Le-Bart",,2025,Chez,Neuchâtel,,46.8997167,6.7840937,,,,,,,,,,,,,,,,,,,,M-Migros,83760.0,Grande Béroche,
"Route d'Englisberg 15b, 1763 Granges-Paccot",,1763,Granges,Fribourg,,46.8288762,7.1469666,,,,,,,,,,,,,,,,,,,,M-Migros,83860.0,Granges - Paccot,
"Meierwis, 8606 Greifensee",,8606,Greifensee,Zürich,,47.3677705,8.680069099999999,,,,,,,,,,,,,,,,,,,,M-Migros,150156.0,Greifensee,
"Freiestrasse 10, 2540 Grenchen",,2540,Grenchen,Solothurn,,47.189823,7.3988133,,,,,,,,,,,,,,,,,,,,MM-Migros,34803.0,Grenchen,
"Rue Château d'En-Bas 2, 1630 Bulle",,1630,Bulle,Fribourg,,46.6237682,7.0571047,,,,,,,,,,,,,,,,,,,,MMM-Migros,84270.0,Gruyère-Centre,
"Lindenplatz 2, 5722 Gränichen",,5722,Gränichen,Aargau,,47.360079,8.0978877,,,,,,,,,,,,,,,,,,,,M-Migros,33953.0,Gränichen,
"Untergstaadstrasse 3, 3780 Gstaad",,3780,Gstaad,Bern,,46.4782127,7.282444399999999,,,,,,,,,,,,,,,,,,,,MM-Migros,34490.0,Gstaad,
"Turbenweg 1, 3073 Gümligen",,3073,Gümligen,Bern,,46.9332437,7.504227599999999,,,,,,,,,,,,,,,,,,,,M-Migros,33091.0,Gümligen,
"Emmenau 3, 3415 Hasle-Rüegsau",,3415,Hasle,Bern,,47.0133606,7.659646,,,,,,,,,,,,,,,,,,,,M-Migros,33360.0,Hasle Rüegsau,
"Lake Placid, rte des Ecluses 23, 1997 Haute-Nendaz",,1997,Haute,Valais,,46.1819875,7.292200299999999,,,,,,,,,,,,,,,,,,,,M-Migros,134250.0,Haute-Nendaz,
"Sonnentalstrasse 2, 9410 Heiden",,9410,Heiden,Zürich,,47.4389092,9.5362127,,,,,,,,,,,,,,,,,,,,M-Migros,90317.0,Heiden,
"Bernstrasse 223, 3627 Heimberg",,3627,Heimberg,Bern,,46.782153,7.6096897,,,,,,,,,,,,,,,,,,,,M-Migros,33920.0,Heimberg,
"Gartenstrasse 2, 9100 Herisau",,9100,Herisau,Zürich,,47.3864974,9.2839133,,,,,,,,,,,,,,,,,,,,MM-Migros,90436.0,Herisau,
"Alpsteinstrasse 8b, 9100 Herisau",,9100,Herisau,Zürich,,47.3787223,9.2788133,,,,,,,,,,,,,,,,,,,,M-Migros,90318.0,Herisau - Alpsteinstrasse,
"Bernstrasse 33, 3360 Herzogenbuchsee",,3360,Herzogenbuchsee,Bern,,47.18655769999999,7.703737199999999,,,,,,,,,,,,,,,,,,,,MM-Migros,34290.0,Herzogenbuchsee,
"Staatsstrasse 16b, 3652 Hilterfingen",,3652,Hilterfingen,Bern,,46.7353812,7.6585091,,,,,,,,,,,,,,,,,,,,M-Migros,34520.0,Hilterfingen,
"Kappelenring 2, 3032 Hinterkappelen",,3032,Hinterkappelen,Bern,,46.96679719999999,7.376618499999999,,,,,,,,,,,,,,,,,,,,MM-Migros,34380.0,Hinterkappelen - Chappelemärit,
"Bachtelstrasse 16, 8340 Hinwil",,8340,Hinwil,Zürich,,47.3003155,8.8446448,,,,,,,,,,,,,,,,,,,,MM-Migros,93650.0,Hinwil,
"Jakob Stutz-Strasse 75, 8335 Hittnau",,8335,Hittnau,Zürich,,47.3631584,8.825415399999999,,,,,,,,,,,,,,,,,,,,M-Migros,93850.0,Hittnau,
"Richensee 2, 6285 Hitzkirch",,6285,Hitzkirch,Luzern,,47.2222081,8.2518859,,,,,,,,,,,,,,,,,,,,M-Migros,73880.0,Hitzkirch,
"Hauptstrasse 5, 6280 Hochdorf",,6280,Hochdorf,Luzern,,47.1660917,8.2913828,,,,,,,,,,,,,,,,,,,,MM-Migros,74340.0,Hochdorf - Seetal-Center,
"Rütistrasse 16, 8634 Hombrechtikon",,8634,Hombrechtikon,Zürich,,47.25190689999999,8.7695935,,,,,,,,,,,,,,,,,,,,M-Migros,150181.0,Hombrechtikon,
"Alte Landstrasse 24, 8810 Horgen",,8810,Horgen,Zürich,,47.2604495,8.5975223,,,,,,,,,,,,,,,,,,,,MM-Migros,150055.0,Horgen - Schinzenhof,
"Seestrasse 119, 9326 Horn",,9326,Horn,Zürich,,47.4971511,9.4532249,,,,,,,,,,,,,,,,,,,,M-Migros,90352.0,Horn,
"Gemeindehausplatz 14+15, 6048 Horw",,6048,Horw,Lucerne,,47.0189969,8.3090283,,,,,,,,,,,,,,,,,,,,M-Migros,73800.0,Horw,
"Bernstrasse 6, 4950 Huttwil",,4950,Huttwil,Bern,,47.1136457,7.840236,,,,,,,,,,,,,,,,,,,,MM-Migros,34400.0,Huttwil,
"Rue de l'Hôpital 12, 2000 Neuchâtel",,2000,Neuchâtel,Neuchâtel,,46.99198699999999,6.929815,,,,,,,,,,,,,,,,,,,,MM-Migros,84210.0,Hôpital,
"Maihölzli 5, 6331 Hünenberg",,6331,Hünenberg,Luzern,,47.17510859999999,8.427283899999999,,,,,,,,,,,,,,,,,,,,M-Migros,73940.0,Hünenberg Dorf,
"Staatsstrasse 134, 3626 Hünibach",,3626,Hünibach,Bern,,46.7451639,7.645371799999999,,,,,,,,,,,,,,,,,,,,M-Migros,33280.0,Hünibach,
"Mythen-Centerstr. 18, 6438 Ibach",,6438,Ibach,Valais,,47.01541109999999,8.645852999999999,,,,,,,,,,,,,,,,,,,,MMM-Migros,74370.0,Ibach-Schwyz - Mythen-Center,
"Poststrasse 4, 7130 Ilanz",,7130,Ilanz,Graubünden,,46.774644,9.2076595,,,,,,,,,,,,,,,,,,,,MM-Migros,90467.0,Ilanz - Center Marcau,
"Rugenparkstrasse 1, 3800 Interlaken",,3800,Interlaken,Bern,,46.6813497,7.851885900000001,,,,,,,,,,,,,,,,,,,,MM-Migros,34300.0,Interlaken,
"Dorfstrasse 1, 2563 Ipsach",,2563,Ipsach,Bern,,47.1157212,7.235048000000001,,,,,,,,,,,,,,,,,,,,M-Migros,33270.0,Ipsach,
"Talweg 6, 3063 Ittigen",,3063,Ittigen,Bern,,46.9742036,7.485090599999999,,,,,,,,,,,,,,,,,,,,MM-Migros,34510.0,Ittigen,
"Molkereistrasse 5, 8645 Jona",,8645,Jona,Zürich,,47.231463,8.837396,,,,,,,,,,,,,,,,,,,,M-Migros,150178.0,Jona - Stadttor,
"Uznacherstrasse 1, 8722 Kaltbrunn",,8722,Kaltbrunn,Zürich,,47.2131487,9.0242369,,,,,,,,,,,,,,,,,,,,Migros-Partner,150893.0,Kaltbrunn,
"Murtenstrasse 15, 3210 Kerzers",,3210,Kerzers,Fribourg,,46.9734612,7.194056499999999,,,,,,,,,,,,,,,,,,,,M-Migros,83800.0,Kerzers,
"Solothurnstrasse 17a, 3422 Kirchberg BE",,3422,Kirchberg,Bern,,47.0887436,7.5811429,,,,,,,,,,,,,,,,,,,,MM-Migros,33770.0,Kirchberg,
"Wilerstrasse 204, 9533 Kirchberg SG",,9533,Kirchberg,St. Gallen,,47.4390012,9.0568103,,,,,,,,,,,,,,,,,,,,M-Migros,90378.0,Kirchberg-Stelz,
"Kirchgasse 5, 8302 Kloten",,8302,Kloten,Zürich,,47.4509009,8.5816248,,,,,,,,,,,,,,,,,,,,MM-Migros,150067.0,Kloten,
"Tösstalstrasse 24, 8483 Kollbrunn",,8483,Kollbrunn,Zürich,,47.4579013,8.769954,,,,,,,,,,,,,,,,,,,,M-Migros,93860.0,Kollbrunn,
"Thunstrasse 17, 3510 Konolfingen",,3510,Konolfingen,Bern,,46.8764118,7.621020399999999,,,,,,,,,,,,,,,,,,,,MM-Migros,34190.0,Konolfingen,
"Hauptstrasse 63, 8280 Kreuzlingen",,8280,Kreuzlingen,Zürich,,47.6478869,9.1754696,,,,,,,,,,,,,,,,,,,,M-Migros,90349.0,Kreuzlingen,
"Bleichestrasse 15, 8280 Kreuzlingen",,8280,Kreuzlingen,Zürich,,47.6422351,9.1957228,,,,,,,,,,,,,,,,,,,,MM-Migros,90440.0,Kreuzlingen - Seepark,
"Luzernerstrasse 30, 6010 Kriens",,6010,Kriens,Aargau,,47.0338143,8.2828503,,,,,,,,,,,,,,,,,,,,MM-Migros,74360.0,Kriens - Hofmatt,
"Am Mattenhof 2, 6010 Kriens",,6010,Kriens,Aargau,,47.0275961,8.300860199999999,,,,,,,,,,,,,,,,,,,,M-Migros,73980.0,Kriens - Mattenhof,
"Bläuacker 10, 3098 Köniz",,3098,Köniz,Bern,,46.9234636,7.4144043,,,,,,,,,,,,,,,,,,,,MM-Migros,34240.0,Köniz - Bläuacker,
"Zürichstrasse 149, 8700 Küsnacht ZH",,8700,Küsnacht,Zürich,,47.3185158,8.5819759,,,,,,,,,,,,,,,,,,,,M-Migros,150157.0,Küsnacht ZH,
"Siegwartstrasse 11, 6403 Küssnacht am Rigi",,6403,Küssnacht,Luzern,,47.083948,8.441486099999999,,,,,,,,,,,,,,,,,,,,MM-Migros,73720.0,Küssnacht - Rigimärt,
"Chemin des Vergers 20, 2520 La Neuveville",,2520,La,Bern,,47.0617573,7.088373199999999,,,,,,,,,,,,,,,,,,,,M-Migros,83750.0,La Neuveville,
"Haut de Scherwil 2, 1634 La Roche",,1634,La,Fribourg,,46.698191,7.141300299999999,,,,,,,,,,,,,,,,,,,,M-Migros,83840.0,La Roche,
"Place des Anciens-Fossés 10B, 1814 La Tour-de-Peilz",,1814,La,Vaud,,46.4526496,6.8574724,,,,,,,,,,,,,,,,,,,,M-Migros,63950.0,La Tour-de-Peilz,
"Rue de l'Ancien Comté 17b, 1635 La Tour-de-Trême",,1635,La,Fribourg,,46.6106241,7.0633925,,,,,,,,,,,,,,,,,,,,M-Migros,83970.0,La Tour-de-Trême Tivoli,
"Rue de la Gare 7, 1347 Le Sentier",,1347,Le,Vaud,,46.6058333,6.230555600000001,,,,,,,,,,,,,,,,,,,,M-Migros,63850.0,La Vallée,
"Feldstrasse 6, 8853 Lachen",,8853,Lachen,Schwyz,,47.1915957,8.855888,,,,,,,,,,,,,,,,,,,,MM-Migros,150073.0,Lachen,
"Rue des Bossons 78-80, 1213 Petit-Lancy",,1213,Petit,Genève,,46.1887414,6.1105979,,,,,,,,,,,,,,,,,,,,MM-Migros,44530.0,Lancy-Onex,
"Bahnhofstrasse 54, 7302 Landquart",,7302,Landquart,Graubünden,,46.9678955,9.5617411,,,,,,,,,,,,,,,,,,,,MM-Migros,90428.0,Landquart,
"Fabrikstrasse 6, 4513 Langendorf",,4513,Langendorf,Solothurn,,47.2184571,7.5114806,,,,,,,,,,,,,,,,,,,,MMM-Migros,34813.0,Langendorf - Ladedorf,
"Wiesenstrasse 28, 4900 Langenthal",,4900,Langenthal,Bern,,47.2144627,7.7841441,,,,,,,,,,,,,,,,,,,,MM-Migros,34310.0,Langenthal,
"Hintere Grundstrasse 2, 8135 Langnau am Albis",,8135,Langnau,Zürich,,47.2913472,8.537825699999999,,,,,,,,,,,,,,,,,,,,M-Migros,150168.0,Langnau a. A.,
"Schlossstrasse 1a, 3550 Langnau i. E.",,3550,Langnau,Bern,,46.9397291,7.7877383,,,,,,,,,,,,,,,,,,,,MM-Migros,34460.0,Langnau i.E.,
"Bahnhofstrasse 4, 4242 Laufen",,4242,Laufen,Basel-Landschaft,,47.4201067,7.501749999999999,,,,,,,,,,,,,,,,,,,,MM-Migros,23230.0,Laufen - Birscenter,
"Route Aloys-Fauquez 97, 1018 Lausanne",,1018,Lausanne,Vaud,,46.5375994,6.633465300000001,,,,,,,,,,,,,,,,,,,,M-Migros,63880.0,Lausanne - Bellevaux,
"Avenue des Bergières 50, 1004 Lausanne",,1004,Lausanne,Vaud,,46.531266,6.618674,,,,,,,,,,,,,,,,,,,,MM-Migros,64570.0,Lausanne - Bergières,
"Avenue de la Vallonnette 2, 1012 Lausanne",,1012,Lausanne,Vaud,,46.5272222,6.651666700000001,,,,,,,,,,,,,,,,,,,,MM-Migros,64520.0,Lausanne - Chailly,
"Avenue d'Ouchy 11, 1006 Lausanne",,1006,Lausanne,Vaud,,46.51472709999999,6.6327767,,,,,,,,,,,,,,,,,,,,MM-Migros,64580.0,Lausanne - Closelet,
"Avenue de Cour 36, 1007 Lausanne",,1007,Lausanne,Vaud,,46.5155569,6.6177823,,,,,,,,,,,,,,,,,,,,M-Migros,63660.0,Lausanne - Cour,
"Place de l'Europe 8, 1003 Lausanne",,1003,Lausanne,Vaud,,46.5207492,6.6298189,,,,,,,,,,,,,,,,,,,,M-Migros,63895.0,Lausanne - Flon Europe,
"Rue de la Borde 3B, 1018 Lausanne",,1018,Lausanne,Vaud,,46.5272276,6.6330705,,,,,,,,,,,,,,,,,,,,M-Migros,63865.0,Lausanne - La Borde,
"Avenue de la Harpe 17, 1007 Lausanne",,1007,Lausanne,Vaud,,46.5124098,6.6259505,,,,,,,,,,,,,,,,,,,,M-Migros,63710.0,Lausanne - La Harpe,
"Route de Berne 1, 1010 Lausanne",,1010,Lausanne,Vaud,,46.5329338,6.6467845,,,,,,,,,,,,,,,,,,,,M-Migros,64340.0,Lausanne - La Sallaz,
"Rue des Terreaux 25, 1003 Lausanne",,1003,Lausanne,Vaud,,46.5224901,6.6275001,,,,,,,,,,,,,,,,,,,,MMM-Migros,64970.0,Lausanne - Métropole,
"Avenue d'Echallens 63, 1004 Lausanne",,1004,Lausanne,Vaud,,46.5278499,6.6161805,,,,,,,,,,,,,,,,,,,,M-Migros,63970.0,Lausanne - Saint-Paul,
"Av. de Sévelin 2 Ab, 1007 Lausanne",,1007,Lausanne,Vaud,,46.52160079999999,6.6161869,,,,,,,,,,,,,,,,,,,,M-Migros,63770.0,Lausanne - Sévelin,
"En Bellossy, 1897 Bouveret",,1897,Bouveret,Valais,,46.3778942,6.860267700000001,,,,,,,,,,,,,,,,,,,,M-Migros,133760.0,Le Bouveret,
"Route de Verbier 15, 1934 Le Châble VS",,1934,Le,Valais,,46.08127409999999,7.213269699999999,,,,,,,,,,,,,,,,,,,,Migros-Partner,137225.0,Le Châble,
"Route de Neuchâtel 40, 2525 Le Landeron",,2525,Le,Neuchâtel,,47.05640080000001,7.060724899999999,,,,,,,,,,,,,,,,,,,,M-Migros,83880.0,Le Landeron,
"Place du Lignon 29 A, 1219 Le Lignon",,1219,Le,Genève,,46.2037339,6.096945799999999,,,,,,,,,,,,,,,,,,,,M-Migros,44370.0,Le Lignon,
"Rue Bournot 35, 2400 Le Locle",,2400,Le,Neuchâtel,,47.0562339,6.7475837,,,,,,,,,,,,,,,,,,,,MM-Migros,84280.0,Le Locle,Geschlossen
"Bachstrasse 15, 5600 Lenzburg",,5600,Lenzburg,Aargau,,47.3874977,8.1771903,,,,,,,,,,,,,,,,,,,,MM-Migros,34243.0,Lenzburg,
"Rue du Plan 28, 2000 Neuchâtel",,2000,Neuchâtel,Neuchâtel,,46.99867090000001,6.9250696,,,,,,,,,,,,,,,,,,,,M-Migros,83930.0,Les Cadolles,
"Charles Naine 44, 2300 La Chaux-de-Fonds",,2300,La,Neuchâtel,,47.0900296,6.8030468,,,,,,,,,,,,,,,,,,,,MM-Migros,84310.0,Les Eplatures,
"Konsumgenossenschaft, 3953 Leuk Stadt",,3953,Leuk,Valais,,46.3352558,7.612349,,,,,,,,,,,,,,,,,,,,Migros-Partner,137220.0,Leuk,
"Kantonstrasse, 3954 Leukerbad",,3954,Leukerbad,Valais,,46.378972,7.626352300000001,,,,,,,,,,,,,,,,,,,,M-Migros,134230.0,Leukerbad,
"Giro Union, 1912 Leytron",,1912,Leytron,Valais,,46.188345,7.205991099999999,,,,,,,,,,,,,,,,,,,,Migros-Partner,137285.0,Leytron,
"Kasernenstrasse 8, 4410 Liestal",,4410,Liestal,Basel-Landschaft,,47.4825871,7.735968199999999,,,,,,,,,,,,,,,,,,,,MM-Migros,23080.0,Liestal,
"Via Stefano Franscini 31, 6600 Locarno",,6600,Locarno,Ticino,,46.1657028,8.7958879,,,,,,,,,,,,,,,,,,,,MM-Migros,124240.0,Locarno,
"Via A. Franzoni 43, 6604 Locarno",,6604,Locarno,Ticino,,46.1684227,8.782362,,,,,,,,,,,,,,,,,,,,M-Migros,123730.0,Locarno - Solduno,
"Via dei Pioppi 2A, 6616 Losone",,6616,Losone,Ticino,,46.1667842,8.77207,,,,,,,,,,,,,,,,,,,,Migros Fachmarkt,126580.0,Losone,
"Hauptstrasse 20, 4654 Lostorf",,4654,Lostorf,Solothurn,,47.382906,7.947779700000001,,,,,,,,,,,,,,,,,,,,M-Migros,33233.0,Lostorf,
"Via Pretorio 15, 6900 Lugano",,6900,Lugano,Ticino,,46.0072667,8.9521917,,,,,,,,,,,,,,,,,,,,MMM-Migros,125010.0,Lugano - Città,
"Via Monte Boglia 5, 6900 Lugano",,6900,Lugano,Ticino,,46.0181406,8.958645599999999,,,,,,,,,,,,,,,,,,,,M-Migros,123710.0,Lugano - Molino Nuovo,
"Via Geretta, 6902 Lugano",,6902,Lugano,Ticino,,45.9912388,8.9436231,,,,,,,,,,,,,,,,,,,,M-Migros,123660.0,Lugano - Paradiso,
"Flachsacherstrasse 17, 5242 Lupfig",,5242,Lupfig,Aargau,,47.44005970000001,8.2081947,,,,,,,,,,,,,,,,,,,,M-Migros,33813.0,Lupfig,
"Route de la Conversion 314, 1093 La Conversion",,1093,La,Vaud,,46.5133792,6.6769263,,,,,,,,,,,,,,,,,,,,M-Migros,63835.0,Lutry – La Conversion,
"Zihlmattweg 46, 6005 Luzern",,6005,Luzern,Aargau,,47.0313725,8.3045821,,,,,,,,,,,,,,,,,,,,M-Migros,73840.0,Luzern - Allmend,
"Zentralstrasse 1, 6003 Luzern",,6003,Luzern,Aargau,,47.0501744,8.3102638,,,,,,,,,,,,,,,,,,,,M-Migros,73230.0,Luzern - Bahnhof,
"Zentralstrasse 7, 6003 Luzern",,6003,Luzern,Aargau,,47.049483,8.309627299999999,,,,,,,,,,,,,,,,,,,,Daily,73150.0,Luzern - Bahnhof Daily,
"Bruchstrasse 18, 6003 Luzern",,6003,Luzern,Aargau,,47.05051539999999,8.2991856,,,,,,,,,,,,,,,,,,,,M-Migros,73770.0,Luzern - Bruchstrasse,
"Kreuzbuchstrasse 53, 6006 Luzern",,6006,Luzern,Aargau,,47.0544319,8.339967699999999,,,,,,,,,,,,,,,,,,,,M-Migros,73670.0,Luzern - Brüelstrasse,
"Luzernerstrasse 143, 6014 Luzern",,6014,Luzern,Aargau,,47.0490708,8.2620816,,,,,,,,,,,,,,,,,,,,M-Migros,73930.0,Luzern - Grossmatte,
"Friedentalstrasse 6, 6004 Luzern",,6004,Luzern,Aargau,,47.0612711,8.3077733,,,,,,,,,,,,,,,,,,,,M-Migros,73140.0,Luzern - Schlossberg,
"Hertensteinstrasse 9, 6004 Luzern",,6004,Luzern,Aargau,,47.054745,8.3096768,,,,,,,,,,,,,,,,,,,,MM-Migros,74380.0,Luzern - Schweizerhof,
"Langensandstr. 23, 6005 Luzern",,6005,Luzern,Aargau,,47.0372928,8.327643199999999,,,,,,,,,,,,,,,,,,,,MM-Migros,74260.0,Luzern - Schönbühl,
"Winkelriedstrasse 58, 6003 Luzern",,6003,Luzern,Aargau,,47.0461492,8.3072655,,,,,,,,,,,,,,,,,,,,M-Migros,73690.0,Luzern - Waldstätter,
"Würzenbachstrasse 19, 6006 Luzern",,6006,Luzern,Aargau,,47.0550868,8.343715699999999,,,,,,,,,,,,,,,,,,,,M-Migros,73270.0,Luzern - Würzenbachstrasse,
"Steinweg 28, 3250 Lyss",,3250,Lyss,Bern,,47.0784931,7.3042599,,,,,,,,,,,,,,,,,,,,MM-Migros,34420.0,Lyss Lyssbachpark,
"Esplanade de Pont-Rouge 2, 1212 Grand-Lancy",,1212,Grand,Genève,,46.1872348,6.1274789,,,,,,,,,,,,,,,,,,,,M-Migros,44600.0,M-Express Pont-Rouge,
"Chemin des Prés-Morés 2, 1315 La Sarraz",,1315,La,Vaud,,46.6543842,6.5087597,,,,,,,,,,,,,,,,,,,,Migros-Partner,63122.0,MP La Sarraz,
"Avenue de Rhodanie 2, 1007 Lausanne",,1007,Lausanne,Vaud,,46.50792389999999,6.624861699999999,,,,,,,,,,,,,,,,,,,,Migros-Partner,63132.0,MP Ouchy,
"Via Cantonale, 6673 Maggia",,6673,Maggia,Ticino,,46.2455766,8.705388800000001,,,,,,,,,,,,,,,,,,,,M-Migros,123820.0,Maggia,
"Weihermatte 7a/7b, 6102 Malters",,6102,Malters,Luzern,,47.0375106,8.180259699999999,,,,,,,,,,,,,,,,,,,,M-Migros,73950.0,Malters,
"Rue St-Pierre 2, 1700 Fribourg",,1700,Fribourg,Fribourg,,46.803415,7.154414,,,,,,,,,,,,,,,,,,,,M-Migros,84240.0,Marché FR,
"Rue Fleur-de-Lys 26, 2074 Marin-Epagnier",,2074,Marin,Neuchâtel,,47.011913,7.007772,,,,,,,,,,,,,,,,,,,,MMM-Migros,84721.0,Marin Centre,
"Route des Pralettes 1, 1723 Marly",,1723,Marly,Fribourg,,46.776154,7.161238,,,,,,,,,,,,,,,,,,,,MM-Migros,83650.0,Marly,
"Rue du Manoir 1, 1920 Martigny",,1920,Martigny,Valais,,46.1013023,7.071951599999999,,,,,,,,,,,,,,,,,,,,MMM-Migros,134550.0,Martigny - Manoir,
"Rue des Avouillons 8, 1920 Martigny",,1920,Martigny,Valais,,46.1057121,7.085201,,,,,,,,,,,,,,,,,,,,M-Migros,136485.0,Martigny Avouillons,
"Avenue de Fully 63, 1920 Martigny",,1920,Martigny,Valais,,46.1111592,7.077022899999999,,,,,,,,,,,,,,,,,,,,Migros Fachmarkt,136450.0,Martigny Quartz Center,
"Via Besso 74, 6900 Massagno",,6900,Massagno,Ticino,,46.0097465,8.9390925,,,,,,,,,,,,,,,,,,,,M-Migros,123720.0,Massagno - Radio,
"Aegertiweg 33, 3812 Wilderswil",,3812,Wilderswil,Bern,,46.6732321,7.868567199999999,,,,,,,,,,,,,,,,,,,,M-Migros,33790.0,Matten,
"Frauenfelderstrasse 95, 9548 Matzingen",,9548,Matzingen,Thurgau,,47.5266094,8.922372,,,,,,,,,,,,,,,,,,,,M-Migros,93830.0,Matzingen,
"Rue du Maupas 69, 1004 Lausanne",,1004,Lausanne,Vaud,,46.5259813,6.623571999999999,,,,,,,,,,,,,,,,,,,,Migros-Partner,63145.0,Maupas,
"Rosengartenstrasse 10, 8706 Meilen",,8706,Meilen,Zürich,,47.2684059,8.6456135,,,,,,,,,,,,,,,,,,,,MM-Migros,150063.0,Meilen,
"Bahnhofstrasse 1, 3860 Meiringen",,3860,Meiringen,Bern,,46.7281823,8.184876899999999,,,,,,,,,,,,,,,,,,,,MM-Migros,34470.0,Meiringen,
"Via Cantonale 89, 6818 Melano",,6818,Melano,Ticino,,45.9192677,8.9853614,,,,,,,,,,,,,,,,,,,,M-Migros,123850.0,Melano,
"Lenzburgerstrasse 50, 5507 Mellingen",,5507,Mellingen,Aargau,,47.4132358,8.267057399999999,,,,,,,,,,,,,,,,,,,,M-Migros,33380.0,Mellingen,
"Grossfeldstrasse 56, 8879 Pizolpark (Mels)",,8879,Pizolpark,Zürich,,47.0421211,9.4312979,,,,,,,,,,,,,,,,,,,,MMM-Migros,90471.0,Mels - Pizolpark,
"Via L. Lavizzari 2, Piazza alla Valle, 6850 Mendrisio",,6850,Mendrisio,Ticino,,45.8703931,8.9861489,,,,,,,,,,,,,,,,,,,,M-Migros,123760.0,Mendrisio,
"Sagiweg 8, 5737 Menziken",,5737,Menziken,Aargau,,47.2415495,8.1868862,,,,,,,,,,,,,,,,,,,,M-Migros,33963.0,Menziken,
"Avenue de Feuillasse 24, 1217 Meyrin",,1217,Meyrin,Genève,,46.2322514,6.082617,,,,,,,,,,,,,,,,,,,,MM-Migros,44410.0,Meyrin,
"Via S.Gottardo 56, 6648 Minusio",,6648,Minusio,Ticino,,46.1752695,8.811113299999999,,,,,,,,,,,,,,,,,,,,M-Migros,123650.0,Minusio - Centro Borenco,
"En Chamard, 1442 Montagny-près-Yverdon",,1442,Montagny,Vaud,,46.7881267,6.6211229,,,,,,,,,,,,,,,,,,,,MM-Migros,64270.0,Montagny,
"Avenue de la Gare 36, 1870 Monthey",,1870,Monthey,Valais,,46.2540655,6.951918399999999,,,,,,,,,,,,,,,,,,,,MMM-Migros,134530.0,Monthey - M Central,
"Place du Marché 6, 1820 Montreux",,1820,Montreux,Vaud,,46.43136260000001,6.9103024,,,,,,,,,,,,,,,,,,,,MM-Migros,64410.0,Montreux,
"Bernstrasse 18, 3280 Morat",,3280,Morat,Bern,,46.9300688,7.1230561,,,,,,,,,,,,,,,,,,,,MM-Migros,84250.0,Morat,
"Viale Serfontana 20, 6834 Morbio Inferiore",,6834,Morbio,Ticino,,45.845155,9.0158114,,,,,,,,,,,,,,,,,,,,MMM-Migros,124270.0,Morbio Inferiore - Serfontana,
"Rue de la gare 19, 1110 Morges",,1110,Morges,Vaud,,46.50965799999999,6.4948101,,,,,,,,,,,,,,,,,,,,MM-Migros,64290.0,Morges,
"Avenue de la Grande Fin 1, 1510 Moudon",,1510,Moudon,Vaud,,46.66791300000001,6.8007963,,,,,,,,,,,,,,,,,,,,MM-Migros,64350.0,Moudon,
"Rue de l'Ecluse 1, 2740 Moutier",,2740,Moutier,Bern,,47.2766867,7.369839499999999,,,,,,,,,,,,,,,,,,,,MM-Migros,24400.0,Moutier,
"Fahrackerstrasse 1, 4853 Murgenthal",,4853,Murgenthal,Aargau,,47.2648681,7.8291953,,,,,,,,,,,,,,,,,,,,M-Migros,33873.0,Murgenthal,
"Kirchfeldstrasse 8, 5630 Muri AG",,5630,Muri,Aargau,,47.4441295,8.3340601,,,,,,,,,,,,,,,,,,,,MM-Migros,33934.0,Muri AG,
"Lutzertstrasse 40, 4132 Muttenz",,4132,Muttenz,Basel-Landschaft,,47.5339698,7.633268800000001,,,,,,,,,,,,,,,,,,,,M-Migros,23810.0,Muttenz - Lutzert,
"Rothausstrasse 17, 4132 Muttenz",,4132,Muttenz,Basel-Landschaft,,47.52636030000001,7.655712299999999,,,,,,,,,,,,,,,,,,,,MM-Migros,24380.0,Muttenz - Rothausstrasse,
"Alte Landstrasse 262, 8708 Männedorf",,8708,Männedorf,Zürich,,47.25284389999999,8.6959135,,,,,,,,,,,,,,,,,,,,M-Migros,150197.0,Männedorf,
"Rue Daniel-Jeanrichard 23, 2300 La Chaux-de-Fonds",,2300,La,Neuchâtel,,47.1001075,6.8273918,,,,,,,,,,,,,,,,,,,,MMM-Migros,84230.0,Métropole Centre MS,
"Route de la Croix d'Or 2, 1083 Mézières VD",,1083,Mézières,Vaud,,46.5962593,6.7697784,,,,,,,,,,,,,,,,,,,,Migros-Partner,63112.0,Mézières,
"Hauptstrasse 91, 4313 Möhlin",,4313,Möhlin,Basel-Landschaft,,47.55648189999999,7.846618500000001,,,,,,,,,,,,,,,,,,,,M-Migros,33163.0,Möhlin,
"Thurstrasse 3, 8555 Müllheim Dorf",,8555,Müllheim,Zürich,,47.599684,9.0005056,,,,,,,,,,,,,,,,,,,,M-Migros,90351.0,Müllheim,
"Bernstrasse 14, 3053 Münchenbuchsee",,3053,Münchenbuchsee,Bern,,47.019911,7.451118999999999,,,,,,,,,,,,,,,,,,,,M-Migros,33730.0,Münchenbuchsee - Tanne,
"Kaspar Pfeiffer-Strasse 2, 4142 Münchenstein",,4142,Münchenstein,Basel-Landschaft,,47.52172059999999,7.607324699999999,,,,,,,,,,,,,,,,,,,,MM-Migros,24580.0,Münchenstein - Gartenstadt,
"Wilerstrasse 5, 9542 Münchwilen",,9542,Münchwilen,Thurgau,,47.4777054,8.9981172,,,,,,,,,,,,,,,,,,,,M-Migros,90376.0,Münchwilen,
"Bahnhofplatz 5, 3110 Münsingen",,3110,Münsingen,Bern,,46.8731962,7.5601532,,,,,,,,,,,,,,,,,,,,MM-Migros,34270.0,Münsingen,
"Kelchbachstrasse 16, 3904 Naters",,3904,Naters,Valais,,46.325258,7.9900542,,,,,,,,,,,,,,,,,,,,M-Migros,133770.0,Naters,
"Zürcherstrasse 113, 5432 Neuenhof",,5432,Neuenhof,Aargau,,47.450122,8.327479799999999,,,,,,,,,,,,,,,,,,,,M-Migros,33663.0,Neuenhof,
"Luzernstrasse 16, 6206 Neuenkirch",,6206,Neuenkirch,Luzern,,47.0982197,8.205216499999999,,,,,,,,,,,,,,,,,,,,Migros-Partner,77210.0,Neuenkirch,
"Im RhyTech 4, 8212 Neuhausen",,8212,Neuhausen,Zürich,,47.682631,8.6145234,,,,,,,,,,,,,,,,,,,,M-Migros,94220.0,Neuhausen,
"Löhningerstrasse 4, 8213 Neunkirch",,8213,Neunkirch,Zürich,,47.6902894,8.5045769,,,,,,,,,,,,,,,,,,,,M-Migros,93750.0,Neunkirch,
"Place de la Gare 10, 1740 Neyruz FR",,1740,Neyruz,Fribourg,,46.7489766,7.000525,,,,,,,,,,,,,,,,,,,,M-Migros,83960.0,Neyruz,
"Lyssstrasse 15, 2560 Nidau",,2560,Nidau,Bern,,47.1263706,7.246324100000001,,,,,,,,,,,,,,,,,,,,MM-Migros,34330.0,Nidau,
"Dorfstrasse 20, 8155 Niederhasli",,8155,Niederhasli,Zürich,,47.4798122,8.4852066,,,,,,,,,,,,,,,,,,,,M-Migros,150180.0,Niederhasli,
"Ziegelbrückstrasse 21, 8867 Niederurnen",,8867,Niederurnen,Zürich,,47.1286639,9.0560191,,,,,,,,,,,,,,,,,,,,M-Migros,150187.0,Niederurnen,
"Route du Simplon, 1845 Noville",,1845,Noville,Vaud,,46.390521,6.9217569,,,,,,,,,,,,,,,,,,,,M-Migros,63645.0,Noville,
"Schulstrasse 2, 5415 Nussbaumen b.Baden",,5415,Nussbaumen,Aargau,,47.4876958,8.2923653,,,,,,,,,,,,,,,,,,,,M-Migros,33733.0,Nussbaumen - Markthof,
"Rue de la Morâche 6, 1260 Nyon",,1260,Nyon,Vaud,,46.3827212,6.2346698,,,,,,,,,,,,,,,,,,,,MMM-Migros,44470.0,Nyon - La Combe,
"chemin de la Fontaine 1, 1260 Nyon",,1260,Nyon,Vaud,,46.3883058,6.220672899999999,,,,,,,,,,,,,,,,,,,,Migros Fachmarkt,44320.0,Nyon - Porte de Nyon,
"Oberdorf 44, 8752 Näfels",,8752,Näfels,Zürich,,47.0936675,9.0593448,,,,,,,,,,,,,,,,,,,,M-Migros,150330.0,Näfels,
"Im Zentrum 2, 8102 Oberengstringen",,8102,Oberengstringen,Zürich,,47.40861109999999,8.4633333,,,,,,,,,,,,,,,,,,,,M-Migros,150161.0,Oberengstringen,
"Lägernstrasse 6, 8154 Oberglatt ZH",,8154,Oberglatt,Zürich,,47.47555999999999,8.507587,,,,,,,,,,,,,,,,,,,,M-Migros,150021.0,Oberglatt,
"Luzernstrasse 36, 6208 Oberkirch LU",,6208,Oberkirch,Luzern,,47.1651653,8.1137803,,,,,,,,,,,,,,,,,,,,M-Migros,73280.0,Oberkirch,
"Staatsstrasse 56, 9463 Oberriet SG",,9463,Oberriet,Zürich,,47.3155572,9.563509,,,,,,,,,,,,,,,,,,,,M-Migros,90331.0,Oberriet,
"Mühlemattstrasse 18, 4104 Oberwil",,4104,Oberwil,Basel-Stadt,,47.5099847,7.5544142,,,,,,,,,,,,,,,,,,,,MMM-Migros,23800.0,Oberwil,
"Mühlefeldstrasse 53, 4702 Oensingen",,4702,Oensingen,Solothurn,,47.2889251,7.719151699999999,,,,,,,,,,,,,,,,,,,,M-Migros,33923.0,Oensingen,
"Zürichstrasse 2, 4665 Oftringen",,4665,Oftringen,Aargau,,47.31297259999999,7.919854,,,,,,,,,,,,,,,,,,,,MM-Migros,34253.0,Oftringen,
"Solothurnerstrasse 21, 4600 Olten",,4600,Olten,Solothurn,,47.349999,7.8979731,,,,,,,,,,,,,,,,,,,,MM-Migros,34383.0,Olten - Hammer,
"Louis Giroud-Strasse 20, 4600 Olten",,4600,Olten,Solothurn,,47.3465494,7.910366199999999,,,,,,,,,,,,,,,,,,,,MM-Migros,34403.0,Olten - Sälipark,
"Thurgauerstrasse 106, 8152 Opfikon",,8152,Opfikon,Zürich,,47.4210946,8.5577823,,,,,,,,,,,,,,,,,,,,MM-Migros,150154.0,Opfikon - Glattpark,
"Rue des Terreaux 22, 1350 Orbe",,1350,Orbe,Vaud,,46.7238364,6.531313099999999,,,,,,,,,,,,,,,,,,,,M-Migros,63930.0,Orbe,
"Route des Granges-Martin 22, 1350 Orbe",,1350,Orbe,Vaud,,46.7293301,6.5323588,,,,,,,,,,,,,,,,,,,,M-Migros,63825.0,Orbe Gruvatiez,
"Route de Lausanne 2, 1610 Oron-la-Ville",,1610,Oron,Fribourg,,46.5719444,6.825833299999999,,,,,,,,,,,,,,,,,,,,M-Migros,63810.0,Oron-la-Ville,
"Bernstrasse 114, 3072 Ostermundigen",,3072,Ostermundigen,Bern,,46.9567813,7.496015499999999,,,,,,,,,,,,,,,,,,,,MM-Migros,34430.0,Ostermundigen,
"Poststr. 1, 3072 Ostermundigen 1",,3072,Ostermundigen,Bern,,46.9561663,7.4826206,,,,,,,,,,,,,,,,,,,,M-Migros,33720.0,Ostermundigen Poststrasse,
"Rue du Temple 19, 1530 Payerne",,1530,Payerne,Vaud,,46.820204,6.9395504,,,,,,,,,,,,,,,,,,,,MM-Migros,64360.0,Payerne,
"Rue Jämes-Paris 4, 2034 Peseux",,2034,Peseux,Neuchâtel,,46.9861029,6.8892536,,,,,,,,,,,,,,,,,,,,MM-Migros,84260.0,Peseux,
"Weiacherstrasse 1, 8422 Pfungen",,8422,Pfungen,Zürich,,47.5172884,8.6500922,,,,,,,,,,,,,,,,,,,,M-Migros,93820.0,Pfungen,
"Gwattstrasse 11, 8808 Pfäffikon SZ",,8808,Pfäffikon,Zürich,,47.2004028,8.793173699999999,,,,,,,,,,,,,,,,,,,,MM-Migros,150072.0,Pfäffikon - Seedammcenter,
"Turmstrasse 9, 8330 Pfäffikon ZH",,8330,Pfäffikon,Zürich,,47.36860859999999,8.7812436,,,,,,,,,,,,,,,,,,,,MM-Migros,94340.0,Pfäffikon ZH,
"Obere Matte 9, 1716 Plaffeien",,1716,Plaffeien,Fribourg,,46.7401152,7.2913561,,,,,,,,,,,,,,,,,,,,M-Migros,83920.0,Plaffeien,
"Route de Saint-Julien 176, 1228 Plan-les-Ouates",,1228,Plan,Genève,,46.1676393,6.1151683,,,,,,,,,,,,,,,,,,,,MM-Migros,44590.0,Plan-les-Ouates,
"Avenue Jomini 11, 1018 Lausanne",,1018,Lausanne,Vaud,,46.5303172,6.6284683,,,,,,,,,,,,,,,,,,,,Migros-Partner,63162.0,Pontaise,
"Allmend, 8500 Frauenfeld",,8500,Frauenfeld,Zürich,,47.57620499999999,8.8974919,,,,,,,,,,,,,,,,,,,,Migros-Supermarkt,90706.0,Popup - Openair Frauenfeld,Geschlossen
"Faubourg St Germain 2, 2900 Porrentruy",,2900,Porrentruy,Jura,,47.416548,7.0780708,,,,,,,,,,,,,,,,,,,,MM-Migros,24270.0,Porrentruy,
"Chemin de l'ancien péage 1, 1290 Versoix",,1290,Versoix,Genève,,46.2752807,6.1672147,,,,,,,,,,,,,,,,,,,,MM-Migros,44920.0,Porte de Versoix,
"Avenue des Portes-Rouges 46, 2000 Neuchâtel",,2000,Neuchâtel,Neuchâtel,,47.0040459,6.9553646,,,,,,,,,,,,,,,,,,,,M-Migros,84220.0,Portes-Rouges,
"Burggartenstrasse 21, 4133 Pratteln",,4133,Pratteln,Basel-Landschaft,,47.5207122,7.694181100000001,,,,,,,,,,,,,,,,,,,,MM-Migros,23640.0,Pratteln,
"Gehrenackerstrasse 7, 4133 Pratteln",,4133,Pratteln,Basel-Landschaft,,47.5212632,7.704299799999999,,,,,,,,,,,,,,,,,,,,Migros-Partner,29540.0,Pratteln-Gehrenacker,
"Via alla Bozzoreda 39, 6963 Pregassona",,6963,Pregassona,Ticino,,46.0234978,8.9672138,,,,,,,,,,,,,,,,,,,,M-Migros,123810.0,Pregassona,
"Route de Cossonay 9, 1008 Prilly",,1008,Prilly,Vaud,,46.533212,6.607736999999999,,,,,,,,,,,,,,,,,,,,M-Migros,63820.0,Prilly,
"Chemin du Viaduc 1, 1008 Prilly",,1008,Prilly,Vaud,,46.5271852,6.6027859,,,,,,,,,,,,,,,,,,,,M-Migros,63870.0,Prilly - Malley,
"Chemin du Vuasset 2, 1028 Préverenges",,1028,Préverenges,Vaud,,46.5181628,6.5174739,,,,,,,,,,,,,,,,,,,,M-Migros,63655.0,Préverenges,
"Chemin de Publoz 11, 1070 Puidoux",,1070,Puidoux,Vaud,,46.4922216,6.769493799999999,,,,,,,,,,,,,,,,,,,,Migros-Partner,63190.0,Puidoux,
"Chemin du Pré-de-la-Tour 3, 1009 Pully",,1009,Pully,Vaud,,46.511495,6.6599262,,,,,,,,,,,,,,,,,,,,MM-Migros,64600.0,Pully,
"Boulevard de Pérolles 21 A, 1700 Fribourg",,1700,Fribourg,Fribourg,,46.79977030000001,7.1519837,,,,,,,,,,,,,,,,,,,,MM-Migros,84300.0,Pérolles Centre,
"Gääli 6, 6026 Rain",,6026,Rain,Aargau,,47.1269865,8.2496975,,,,,,,,,,,,,,,,,,,,M-Migros,73920.0,Rain,
"Petersburg 416, 8262 Ramsen",,8262,Ramsen,Zürich,,47.7068679,8.820864799999999,,,,,,,,,,,,,,,,,,,,Migros-Partner,97300.0,Ramsen,
"Zürcherstrasse 4, 8640 Rapperswil SG",,8640,Rapperswil,Zürich,,47.2294502,8.8213855,,,,,,,,,,,,,,,,,,,,MM-Migros,150071.0,Rapperswil - Sonnenhof,
"Untere Bahnhofstrasse 19, 8640 Rapperswil SG",,8640,Rapperswil,Zürich,,47.2256951,8.8182107,,,,,,,,,,,,,,,,,,,,M-Migros,150188.0,Rapperswil - Zentrum,
"Staatsstrasse 128, 9445 Rebstein",,9445,Rebstein,Zürich,,47.3970469,9.5808391,,,,,,,,,,,,,,,,,,,,Migros-Partner,90729.0,Rebstein,
"Zentrum 1, 8105 Regensdorf",,8105,Regensdorf,Zürich,,47.4313251,8.4691306,,,,,,,,,,,,,,,,,,,,MMM-Migros,150060.0,Regensdorf - Zentrum,
"Gewerbestrasse 4, 8864 Reichenburg",,8864,Reichenburg,Schwyz,,47.1723969,8.969543999999999,,,,,,,,,,,,,,,,,,,,M-Migros,150083.0,Reichenburg,
"Hauptstrasse 52, 6260 Reiden",,6260,Reiden,Luzern,,47.24840589999999,7.9714129,,,,,,,,,,,,,,,,,,,,M-Migros,73210.0,Reiden,
"Niederbergstrasse 1, 4153 Reinach BL",,4153,Reinach,Basel-Landschaft,,47.5023499,7.5964122,,,,,,,,,,,,,,,,,,,,MM-Migros,24420.0,Reinach - Mischeli,
"Herrenweg 11, 4153 Reinach BL",,4153,Reinach,Basel-Landschaft,,47.492663,7.5945005,,,,,,,,,,,,,,,,,,,,M-Migros,23850.0,Reinach - Zentrum,
"Sandgasse 6, 5734 Reinach AG",,5734,Reinach,Aargau,,47.258112,8.181545999999999,,,,,,,,,,,,,,,,,,,,MM-Migros,34463.0,Reinach AG,
"Avenue de Florissant 38, 1020 Renens VD",,1020,Renens,Vaud,,46.5307464,6.5981044,,,,,,,,,,,,,,,,,,,,M-Migros,64280.0,Renens - Florissant,
"Rue de la Mèbre 9, 1020 Renens VD",,1020,Renens,Vaud,,46.53853729999999,6.5808829,,,,,,,,,,,,,,,,,,,,MM-Migros,64590.0,Renens - Métropole,
"Avenue d'Epenex 4c, 1020 Renens VD",,1020,Renens,Vaud,,46.5376966,6.5773418,,,,,,,,,,,,,,,,,,,,M-Migros,63625.0,Renens Quai Ouest,
"Rue du Silo 11, 1020 Renens",,1020,Renens,Vaud,,46.53643779999999,6.5909099,,,,,,,,,,,,,,,,,,,,M-Migros,64325.0,Renens Silo,
"Rhyguetstrasse 2, 9424 Rheineck",,9424,Rheineck,Zürich,,47.4683877,9.5885857,,,,,,,,,,,,,,,,,,,,M-Migros,90326.0,Rheineck,
"Lindenstrasse 3, 4310 Rheinfelden",,4310,Rheinfelden,Basel-Landschaft,,47.5550963,7.7980646,,,,,,,,,,,,,,,,,,,,MM-Migros,34293.0,Rheinfelden,
"Via Cantonale 40, 6595 Riazzino",,6595,Riazzino,Ticino,,46.1750443,8.8898862,,,,,,,,,,,,,,,,,,,,M-Migros,123890.0,Riazzino,
"Schützengass 4, 8805 Richterswil",,8805,Richterswil,Zürich,,47.206498,8.705487,,,,,,,,,,,,,,,,,,,,M-Migros,150158.0,Richterswil,
"Rössligasse/Webergässchen 8, 4125 Riehen",,4125,Riehen,Basel-Landschaft,,47.5853707,7.651635499999998,,,,,,,,,,,,,,,,,,,,MM-Migros,24360.0,Riehen - Dorf,
"Grenzacherweg 81, 4125 Riehen",,4125,Riehen,Basel-Landschaft,,47.57550819999999,7.646789800000001,,,,,,,,,,,,,,,,,,,,Migros-Partner,29580.0,Riehen - Grenzacherweg,
"Gotenstrasse 84, 4125 Riehen",,4125,Riehen,Basel-Landschaft,,47.5697419,7.6333912,,,,,,,,,,,,,,,,,,,,Migros-Partner,29620.0,Riehen - Niederholz,
"Av. de la Gare 17, 1180 Rolle",,1180,Rolle,Vaud,,46.4611274,6.3380831,,,,,,,,,,,,,,,,,,,,MM-Migros,64380.0,Rolle,
"En Félezin, 1032 Romanel-s-Lausanne",,1032,Romanel,Vaud,,46.559423,6.611738799999999,,,,,,,,,,,,,,,,,,,,MMM-Migros,65010.0,Romanel-sur-Lausanne,
"Bahnhofstrasse 54a, 8590 Romanshorn",,8590,Romanshorn,Zürich,,47.5642471,9.3672494,,,,,,,,,,,,,,,,,,,,MM-Migros,90443.0,Romanshorn - Hubzelg,
"Avenue de la Gare 7, 1680 Romont FR",,1680,Romont,Fribourg,,46.6931658,6.9125703,,,,,,,,,,,,,,,,,,,,MM-Migros,84292.0,Romont,
"Bahnhofstrasse 11b, 6037 Root",,6037,Root,Aargau,,47.1179287,8.3919455,,,,,,,,,,,,,,,,,,,,M-Migros,73290.0,Root,
"Promenadenstrasse 83, 9400 Rorschach",,9400,Rorschach,Zürich,,47.47419679999999,9.4953107,,,,,,,,,,,,,,,,,,,,M-Migros,90324.0,Rorschach - Promenade,
"Trischlistrasse 15, 9400 Rorschach",,9400,Rorschach,Zürich,,47.4785111,9.4895747,,,,,,,,,,,,,,,,,,,,MM-Migros,90445.0,Rorschach - Trischliplatz,
"Neue Aarburgstrasse 20, 4852 Rothrist",,4852,Rothrist,Aargau,,47.3066608,7.887301099999999,,,,,,,,,,,,,,,,,,,,M-Migros,33383.0,Rothrist,
"Buonaserstrasse 1, 6343 Rotkreuz",,6343,Rotkreuz,Luzern,,47.1412476,8.4282621,,,,,,,,,,,,,,,,,,,,M-Migros,73820.0,Rotkreuz,
"Ruopigenplatz, 6015 Luzern",,6015,Luzern,Aargau,,47.0614259,8.2747288,,,,,,,,,,,,,,,,,,,,M-Migros,73710.0,Ruopigen Zentrum Luzern,
"Rüediswilerstrasse 79, 6017 Ruswil",,6017,Ruswil,Aargau,,47.08841,8.11279,,,,,,,,,,,,,,,,,,,,M-Migros,73860.0,Ruswil,
"Place Pranniviers 8, 3966 Réchy",,3966,Réchy,Valais,,46.26297599999999,7.496319499999999,,,,,,,,,,,,,,,,,,,,Migros-Partner,137215.0,Réchy,
"Hofwisenstrasse 40A, 8153 Rümlang",,8153,Rümlang,Zürich,,47.4506554,8.537538999999999,,,,,,,,,,,,,,,,,,,,M-Migros,150147.0,Rümlang Hofwisencenter,
"Zürcherstrasse 4, 8803 Rüschlikon",,8803,Rüschlikon,Zürich,,47.3002924,8.5509272,,,,,,,,,,,,,,,,,,,,M-Migros,150075.0,Rüschlikon Parkside,
"Bandwiesstrasse 6, 8630 Rüti",,8630,Rüti,Zürich,,47.2580794,8.849336899999999,,,,,,,,,,,,,,,,,,,,MM-Migros,94230.0,Rüti ZH,
"Hôtel du Glacier, 3906 Saas Fee",,3906,Saas,Valais,,46.1075331,7.925843,,,,,,,,,,,,,,,,,,,,M-Migros,133750.0,Saas Fee,
"Rue de la Gruère 23, 2350 Saignelégier",,2350,Saignelégier,Jura,,47.2543084,7.0007741,,,,,,,,,,,,,,,,,,,,M-Migros,83790.0,Saignelégier,
"Rue de l'Industrie 21, 1450 Ste-Croix",,1450,Ste,Vaud,,46.8197592,6.503079,,,,,,,,,,,,,,,,,,,,M-Migros,63840.0,Sainte-Croix,
"Cho d`Punt 10, 7503 Samedan",,7503,Samedan,Graubünden,,46.53115,9.8739344,,,,,,,,,,,,,,,,,,,,MM-Migros,90468.0,Samedan,
"Nelkenstrasse 5, 6060 Sarnen",,6060,Sarnen,Obwalden,,46.8967021,8.2489189,,,,,,,,,,,,,,,,,,,,MM-Migros,74290.0,Sarnen - Sarnen-Center,
"Centre Commercial du Stade, 1965 Savièse",,1965,Savièse,Valais,,46.310073,7.334546500000001,,,,,,,,,,,,,,,,,,,,M-Migros,133720.0,Savièse,
"Rue de Gottefrey 38, 1907 Saxon",,1907,Saxon,Valais,,46.1487743,7.173367799999999,,,,,,,,,,,,,,,,,,,,M-Migros,136475.0,Saxon,
"Im Rösle 2, 9494 Schaan",,9494,Schaan,Zürich,,47.168639,9.504043,,,,,,,,,,,,,,,,,,,,M-Migros,90312.0,Schaan,
"Hohlenbaumstrasse 79, 8200 Schaffhausen",,8200,Schaffhausen,Zürich,,47.70639440000001,8.6199955,,,,,,,,,,,,,,,,,,,,M-Migros,93670.0,Schaffhausen - Breite,
"Dürstlingweg 2, 8203 Schaffhausen",,8203,Schaffhausen,Zürich,,47.699119,8.654577,,,,,,,,,,,,,,,,,,,,M-Migros,93130.0,Schaffhausen - Buchthalen,
"Stüdliackerstrasse 4, 8207 Schaffhausen",,8207,Schaffhausen,Zürich,,47.7200564,8.6649691,,,,,,,,,,,,,,,,,,,,MMM-Migros,94710.0,Schaffhausen - Herblinger Markt,
"Bahnhofstrasse 56/58, 8200 Schaffhausen",,8200,Schaffhausen,Zürich,,47.6987877,8.6340494,,,,,,,,,,,,,,,,,,,,MM-Migros,94310.0,Schaffhausen - Vorstadt,
"Pfäffikonerstrasse 19, 8834 Schindellegi",,8834,Schindellegi,Schwyz,,47.1758732,8.7130995,,,,,,,,,,,,,,,,,,,,M-Migros,150329.0,Schindellegi,
"Badenerstrasse 57, 8952 Schlieren",,8952,Schlieren,Zürich,,47.3966173,8.437052999999999,,,,,,,,,,,,,,,,,,,,M-Migros,150053.0,Schlieren - Kesslerplatz,Geschlossen
"Rietbachstrasse 14, 8952 Schlieren",,8952,Schlieren,Zürich,,47.4004418,8.4350087,,,,,,,,,,,,,,,,,,,,MM-Migros,150081.0,Schlieren - Rietbach,
"Güterstrasse 5, 8952 Schlieren",,8952,Schlieren,Zürich,,47.3985321,8.4471104,,,,,,,,,,,,,,,,,,,,M-Migros,150198.0,Schlieren - Zentrum,
"Chemin Cité-des-Jardins 13A, 1700 Fribourg",,1700,Fribourg,Fribourg,,46.809102,7.171377000000001,,,,,,,,,,,,,,,,,,,,M-Migros,83640.0,Schoenberg,
"Freiburgstrasse 5b, 3150 Schwarzenburg",,3150,Schwarzenburg,Bern,,46.81760329999999,7.339542799999999,,,,,,,,,,,,,,,,,,,,M-Migros,33260.0,Schwarzenburg,
"Picardiestrasse 3, 5040 Schöftland",,5040,Schöftland,Aargau,,47.3029275,8.047623999999999,,,,,,,,,,,,,,,,,,,,M-Migros,33883.0,Schöftland,
"Industriestrasse 10, 3321 Schönbühl EKZ",,3321,Schönbühl,Bern,,47.0168401,7.491994099999999,,,,,,,,,,,,,,,,,,,,MMM-Migros,34700.0,Schönbühl - Shoppyland,
"C.F. Ballystrasse 14, 5012 Schönenwerd",,5012,Schönenwerd,Solothurn,,47.373527,8.003121,,,,,,,,,,,,,,,,,,,,M-Migros,33783.0,Schönenwerd,
"Vormüli 1, 6170 Schüpfheim",,6170,Schüpfheim,Luzern,,46.9488855,8.0152479,,,,,,,,,,,,,,,,,,,,M-Migros,73830.0,Schüpfheim,
"Rue de la Chapalette 1, 1933 Sembrancher",,1933,Sembrancher,Valais,,46.0788537,7.1475468,,,,,,,,,,,,,,,,,,,,M-Migros,136480.0,Sembrancher,
"via al Ticino 28, 6514 Sementina",,6514,Sementina,Ticino,,46.1821581,8.9921249,,,,,,,,,,,,,,,,,,,,M-Migros,123860.0,Sementina,
"Mettenwilstrasse 11, 6203 Sempach Station",,6203,Sempach,Luzern,,47.1170786,8.199438200000001,,,,,,,,,,,,,,,,,,,,M-Migros,73910.0,Sempach Station,
"Unterdorfstrasse 21, 5703 Seon",,5703,Seon,Aargau,,47.3478977,8.161255299999999,,,,,,,,,,,,,,,,,,,,M-Migros,33913.0,Seon,
"Rue de la Servette 93, 1202 Genève",,1202,Genève,Genève,,46.2133978,6.1296829,,,,,,,,,,,,,,,,,,,,MM-Migros,44810.0,Servette,
"Winterthurerstrasse 5, 8472 Seuzach",,8472,Seuzach,Zürich,,47.5355435,8.7302705,,,,,,,,,,,,,,,,,,,,M-Migros,93720.0,Seuzach,
"Avenue Général Guisan, 3960 Sierre",,3960,Sierre,Valais,,46.2921149,7.5290697,,,,,,,,,,,,,,,,,,,,MM-Migros,134500.0,Sierre,
"Rte des Lacustres, 3960 Sierre",,3960,Sierre,Valais,,46.2815902,7.5139609,,,,,,,,,,,,,,,,,,,,Migros Fachmarkt,134510.0,Sierre Rossfeld,
"Avenue Ritz 31, 1950 Sion",,1950,Sion,Valais,,46.235786,7.3596396,,,,,,,,,,,,,,,,,,,,M-Migros,133690.0,Sion - Le Ritz,
"Avenue de France 14-20, 1950 Sion",,1950,Sion,Valais,,46.2288045,7.3558322,,,,,,,,,,,,,,,,,,,,MMM-Migros,134900.0,Sion - Métropole,
"Avenue Grand-Champsec 30, 1950 Sion",,1950,Sion,Valais,,46.2314136,7.3841599,,,,,,,,,,,,,,,,,,,,M-Migros,133697.0,Sion - Tourbillon Center,
"Winterthurerstrasse 27, 8370 Sirnach",,8370,Sirnach,Zürich,,47.4636891,8.9916881,,,,,,,,,,,,,,,,,,,,M-Migros,90377.0,Sirnach,
"Hauptstrasse 17, 4450 Sissach",,4450,Sissach,Basel-Landschaft,,47.4622492,7.816976499999999,,,,,,,,,,,,,,,,,,,,MM-Migros,23830.0,Sissach,
"Wengistrasse 13, 4500 Solothurn",,4500,Solothurn,Solothurn,,47.2068854,7.533167,,,,,,,,,,,,,,,,,,,,M-Migros,34373.0,Solothurn,
"Baselstrasse 30/32, 4500 Solothurn",,4500,Solothurn,Solothurn,,47.2112133,7.5446377,,,,,,,,,,,,,,,,,,,,M-Migros,33853.0,Solothurn Baselstrasse,
"Bielstrasse 80, 4500 Solothurn",,4500,Solothurn,Solothurn,,47.2113515,7.5262265,,,,,,,,,,,,,,,,,,,,M-Migros,33833.0,Solothurn Öufi,
"Bahnhofstrasse, 3700 Spiez",,3700,Spiez,Bern,,46.6857809,7.68144,,,,,,,,,,,,,,,,,,,,MM-Migros,34280.0,Spiez - Terminus,
"Shoppi Tivoli, 8957 Spreitenbach",,8957,Spreitenbach,Zürich,,47.42216330000001,8.367677200000001,,,,,,,,,,,,,,,,,,,,MMM-Migros,34833.0,Spreitenbach - Tivoli,
"Rue Baptiste-Savoye 62, 2610 St-Imier",,2610,St,Bern,,47.151526,6.995280999999999,,,,,,,,,,,,,,,,,,,,M-Migros,83690.0,St-Imier,
"Av. du Simplon 15, 1890 St-Maurice",,1890,St,Vaud,,46.2147356,7.0052958,,,,,,,,,,,,,,,,,,,,M-Migros,133730.0,St-Maurice,
"Fürstenlandstrasse 157, 9014 St.Gallen",,9014,St,Zürich,,47.4099874,9.3351728,,,,,,,,,,,,,,,,,,,,M-Migros,90364.0,St. Gallen - Bruggen,
"Ulmenstrasse 11, 9000 St.Gallen",,9000,St,Zürich,,47.4203649,9.3539816,,,,,,,,,,,,,,,,,,,,M-Migros,90321.0,St. Gallen - Lachen,
"Langgasse 20, 9008 St. Gallen",,9008,St,Zürich,,47.4352455,9.3863258,,,,,,,,,,,,,,,,,,,,M-Migros,90335.0,St. Gallen - Langgasse,
"Rorschacherstrasse 249, 9016 St. Gallen",,9016,St,Zürich,,47.43718579999999,9.4050536,,,,,,,,,,,,,,,,,,,,M-Migros,90336.0,St. Gallen - Neudorf,
"St. Leonhardstrasse 35, 9000 St. Gallen",,9000,St,Zürich,,47.4222438,9.3706623,,,,,,,,,,,,,,,,,,,,MMM-Migros,90478.0,St. Gallen - Neumarkt,
"Rorschacherstrasse 150, 9006 St. Gallen",,9006,St,Zürich,,47.4311198,9.3960883,,,,,,,,,,,,,,,,,,,,M-Migros,90447.0,St. Gallen - Silberturm,
"Brühlgasse 28, 9000 St.Gallen",,9000,St,Zürich,,47.42523629999999,9.3781919,,,,,,,,,,,,,,,,,,,,M-Migros,90339.0,St. Gallen - Spisermarkt,
"Bachstrasse 29, 9008 St. Gallen",,9008,St,Zürich,,47.4358209,9.3918559,,,,,,,,,,,,,,,,,,,,MM-Migros,90448.0,St. Gallen - St. Fiden,
"Neudorfstrasse 60, 9430 St. Margrethen SG",,9430,St,Zürich,,47.4500726,9.6512018,,,,,,,,,,,,,,,,,,,,MMM-Migros,90475.0,St. Margrethen - Rheinpark,
"Eyastrasse 1, 3924 St. Niklaus VS",,3924,St,Valais,,46.1619189,7.8256813,,,,,,,,,,,,,,,,,,,,Migros-Partner,137265.0,St. Niklaus,
"Zum Marktplatz, 3922 Stalden VS",,3922,Stalden,Valais,,46.2331036,7.870670499999999,,,,,,,,,,,,,,,,,,,,Migros-Partner,137255.0,Stalden,
"Bitzistrasse 2, 6370 Stans",,6370,Stans,Nidwalden,,46.9653342,8.354756799999999,,,,,,,,,,,,,,,,,,,,MMM-Migros,74720.0,Stans - Länderpark,
"Route de Sainte-Thérèse 2a, 1700 Fribourg",,1700,Fribourg,Fribourg,,46.8097823,7.166843099999999,,,,,,,,,,,,,,,,,,,,MM-Migros,83830.0,Ste-Thérèse,
"Im Feldbach 1b, 8266 Steckborn",,8266,Steckborn,Zürich,,47.6637555,8.975932,,,,,,,,,,,,,,,,,,,,M-Migros,93740.0,Steckborn,
"Oberdorfstrasse 33, 3612 Steffisburg",,3612,Steffisburg,Bern,,46.7811567,7.6338312,,,,,,,,,,,,,,,,,,,,M-Migros,33690.0,Steffisburg,
"Unterdorfstrasse 10, 3612 Steffisburg",,3612,Steffisburg,Bern,,46.778138,7.6340077,,,,,,,,,,,,,,,,,,,,MM-Migros,34180.0,Steffisburg Unterdorf,
"Bahnhofstrasse, 3940 Steg",,3940,Steg,Valais,,46.3147101,7.7452664,,,,,,,,,,,,,,,,,,,,M-Migros,134260.0,Steg,
"Schaffhauserstrasse 61, 4332 Stein AG",,4332,Stein,Basel-Landschaft,,47.5489963,7.9546493,,,,,,,,,,,,,,,,,,,,M-Migros,33673.0,Stein,
"Kaltenbacherstrasse 41, 8260 Stein am Rhein",,8260,Stein,Zürich,,47.65139430000001,8.853030799999999,,,,,,,,,,,,,,,,,,,,M-Migros,94300.0,Stein am Rhein,
"Hinterbergstrasse 40, 6312 Steinhausen",,6312,Steinhausen,Luzern,,47.1924775,8.4769179,,,,,,,,,,,,,,,,,,,,MMM-Migros,74710.0,Steinhausen - Zugerland,
"Bahnhofstrasse 2, 6312 Steinhausen",,6312,Steinhausen,Luzern,,47.1970572,8.4849262,,,,,,,,,,,,,,,,,,,,M-Migros,73970.0,Steinhausen Dorf,
"Goethestrasse 18, 8712 Stäfa",,8712,Stäfa,Zürich,,47.2406752,8.724061599999999,,,,,,,,,,,,,,,,,,,,MM-Migros,150069.0,Stäfa,
"Bernstrasse Ost 52, 5034 Suhr",,5034,Suhr,Aargau,,47.3728803,8.0821378,,,,,,,,,,,,,,,,,,,,M-Migros,33684.0,Suhr Suhrepark,
"Hauptstrasse 3, 8583 Sulgen",,8583,Sulgen,Zürich,,47.5403518,9.1823354,,,,,,,,,,,,,,,,,,,,M-Migros,90383.0,Sulgen - Passerelle,
"Bahnhofstrasse 28, 6210 Sursee",,6210,Sursee,Luzern,,47.1729202,8.1021966,,,,,,,,,,,,,,,,,,,,MMM-Migros,74700.0,Surseepark,
"Sustenstrasse 5, 3952 Susten",,3952,Susten,Valais,,46.3109719,7.6417446,,,,,,,,,,,,,,,,,,,,Migros-Partner,137230.0,Susten,
"Neue Kantonstrasse, 3929 Täsch",,3929,Täsch,Valais,,46.0676625,7.776049500000001,,,,,,,,,,,,,,,,,,,,Migros-Partner,137203.0,Taesch,
"Rue de Pierre-Pertuis 11, 2710 Tavannes",,2710,Tavannes,Bern,,47.2192623,7.197643200000001,,,,,,,,,,,,,,,,,,,,M-Migros,83740.0,Tavannes,
"Via Cantonale, 6807 Taverne",,6807,Taverne,Ticino,,46.0608167,8.9314953,,,,,,,,,,,,,,,,,,,,M-Migros,123800.0,Taverne,
"Via al Giardino 4, 6598 Tenero",,6598,Tenero,Ticino,,46.180653,8.850601,,,,,,,,,,,,,,,,,,,,M-Migros,123770.0,Tenero,
"Via Luigi Canonica 40, 6950 Tesserete",,6950,Tesserete,Ticino,,46.066931,8.967319,,,,,,,,,,,,,,,,,,,,M-Migros,123690.0,Tesserete,
"Speicherstrasse 8, 9053 Teufen AR",,9053,Teufen,Zürich,,47.3907473,9.3908577,,,,,,,,,,,,,,,,,,,,M-Migros,90385.0,Teufen,
"Wiesentalstrasse 4, 9425 Thal",,9425,Thal,Zürich,,47.4798306,9.576772,,,,,,,,,,,,,,,,,,,,M-Migros,90328.0,Thal,
"Alte Landstrasse 130, 8800 Thalwil",,8800,Thalwil,Zürich,,47.2943495,8.563848799999999,,,,,,,,,,,,,,,,,,,,MM-Migros,150066.0,Thalwil,
"Biberstrasse 30, 8240 Thayngen",,8240,Thayngen,Zürich,,47.7488189,8.7067122,,,,,,,,,,,,,,,,,,,,M-Migros,93710.0,Thayngen,
"Rue du Collège 6, 1410 Thierrens",,1410,Thierrens,Vaud,,46.7043796,6.754728099999999,,,,,,,,,,,,,,,,,,,,Migros-Partner,63200.0,Thierrens,
"CC Val Thoiry, 01710 Thoiry",,1710,Thoiry,Fribourg,,46.2289922,5.9947919,,,,,,,,,,,,,,,,,,,,MMM-Migros,49000.0,Thoiry (F),
"Bälliz 2, 3600 Thun",,3600,Thun,Bern,,46.76012069999999,7.6266341,,,,,,,,,,,,,,,,,,,,MM-Migros,34250.0,Thun - Bälliz,
"Frutigenstrasse 60, 3604 Thun",,3604,Thun,Bern,,46.7451436,7.626153100000001,,,,,,,,,,,,,,,,,,,,M-Migros,33680.0,Thun - Dürrenast,
"Talackerstrasse 62, 3604 Thun",,3604,Thun,Bern,,46.7447598,7.614778,,,,,,,,,,,,,,,,,,,,MMM-Migros,34720.0,Thun - Oberland,
"Weststrasse 14, 3604 Thun",,3604,Thun,Bern,,46.7450556,7.6050711,,,,,,,,,,,,,,,,,,,,Migros Fachmarkt,33250.0,Thun - Panorama Center,
"Im Park, 7430 Thusis",,7430,Thusis,Graubünden,,46.694364,9.440026,,,,,,,,,,,,,,,,,,,,MM-Migros,90466.0,Thusis - im Park,
"Rue de Genève 92, 1226 Thônex",,1226,Thônex,Genève,,46.1932155,6.199732099999999,,,,,,,,,,,,,,,,,,,,MM-Migros,44830.0,Thônex,
"Rue Albert-Gobat 1, 2720 Tramelan",,2720,Tramelan,Bern,,47.22346839999999,7.0996993,,,,,,,,,,,,,,,,,,,,M-Migros,83610.0,Tramelan,
"Landstrasse 251, 9495 Triesen",,9495,Triesen,Zürich,,47.10866739999999,9.5256168,,,,,,,,,,,,,,,,,,,,M-Migros,90341.0,Triesen,
"Tösstalstrasse 54, 8488 Turbenthal",,8488,Turbenthal,Zürich,,47.4385924,8.8446242,,,,,,,,,,,,,,,,,,,,M-Migros,93175.0,Turbenthal,
"Hauptstrasse 117, 8274 Tägerwilen",,8274,Tägerwilen,Zürich,,47.6539146,9.141419,,,,,,,,,,,,,,,,,,,,M-Migros,90361.0,Tägerwilen,
"Dorfstrasse 21, 3661 Uetendorf",,3661,Uetendorf,Bern,,46.77459830000001,7.573312899999999,,,,,,,,,,,,,,,,,,,,M-Migros,33330.0,Uetendorf,
"Zürcherstrasse 8, 8142 Uitikon Waldegg",,8142,Uitikon,Zürich,,47.3687202,8.461661,,,,,,,,,,,,,,,,,,,,M-Migros,150080.0,Uitikon-Waldegg,
"Binzmattweg 8, 5035 Unterentfelden",,5035,Unterentfelden,Aargau,,47.3620581,8.0457322,,,,,,,,,,,,,,,,,,,,MM-Migros,33653.0,Unterentfelden,
"Hofstrasse 47, 8620 Wetzikon ZH",,8620,Wetzikon,Zürich,,47.3143471,8.7948042,,,,,,,,,,,,,,,,,,,,M-Migros,96531.0,Unterwetzikon,
"Zugerstrasse 32, 6314 Unterägeri",,6314,Unterägeri,Luzern,,47.1380428,8.579203,,,,,,,,,,,,,,,,,,,,M-Migros,73760.0,Unterägeri,
"Birmensdorferstrasse 87, 8902 Urdorf",,8902,Urdorf,Zürich,,47.3850391,8.4217389,,,,,,,,,,,,,,,,,,,,M-Migros,150151.0,Urdorf - Spitzacker,
"Zürichstrasse 20, 8610 Uster",,8610,Uster,Zürich,,47.34983340000001,8.71517,,,,,,,,,,,,,,,,,,,,MMM-Migros,150251.0,Uster - Illuster,
"Winterthurerstrasse 18, 8610 Uster",,8610,Uster,Zürich,,47.3544989,8.7132171,,,,,,,,,,,,,,,,,,,,Migros Fachmarkt,150194.0,Uster-West,
"Hauptstrasse 29, 3427 Utzenstorf",,3427,Utzenstorf,Bern,,47.128547,7.558567000000001,,,,,,,,,,,,,,,,,,,,M-Migros,33350.0,Utzenstorf - Linde,
"Zürcherstrasse 25, 8730 Uznach",,8730,Uznach,Zürich,,47.2262636,8.980858,,,,,,,,,,,,,,,,,,,,MM-Migros,150179.0,Uznach - Frohsinn,
"Lindenstrasse 5, 9240 Uzwil",,9240,Uzwil,Zürich,,47.4366031,9.1349219,,,,,,,,,,,,,,,,,,,,MM-Migros,90450.0,Uzwil - Birkenhof,
"Bahnhofstrasse 59, 4663 Aarburg",,4663,Aarburg,Solothurn,,47.3208973,7.9067907,,,,,,,,,,,,,,,,,,,,Voi,37338.0,VOI Aarburg,
"Langenthalstrasse 44, 4912 Aarwangen",,4912,Aarwangen,Bern,,47.23622959999999,7.7719966,,,,,,,,,,,,,,,,,,,,Voi,37322.0,VOI Aarwangen,
"Brünigstrasse 29, 6055 Alpnach Dorf",,6055,Alpnach,Obwalden,,46.9521734,8.2759375,,,,,,,,,,,,,,,,,,,,Voi,77357.0,VOI Alpnach,
"Mellingerstrasse 142, 5400 Baden",,5400,Baden,Aargau,,47.4673506,8.2933184,,,,,,,,,,,,,,,,,,,,Voi,37335.0,VOI Baden - Mellingerstrasse,
"Chemin des Romelles 17, 1293 Bellevue",,1293,Bellevue,Genève,,46.2496047,6.1484049,,,,,,,,,,,,,,,,,,,,Voi,49103.0,VOI Bellevue,
"Mühledorfstrasse 15, 3018 Bern",,3018,Bern,Bern,,46.9453383,7.390210799999998,,,,,,,,,,,,,,,,,,,,Voi,37303.0,VOI Bern - Fellergut,
"Könizstrasse 60, 3008 Bern",,3008,Bern,Bern,,46.9412363,7.4186333,,,,,,,,,,,,,,,,,,,,Voi,37306.0,VOI Bern - Fischermätteli,
"Kramgasse 54, 3011 Bern",,3011,Bern,Bern,,46.9481109,7.449745900000001,,,,,,,,,,,,,,,,,,,,Voi,37343.0,VOI Bern - Kramgasse,
"Schossshaldenstrasse 16, 3006 Bern",,3006,Bern,Bern,,46.9453774,7.462897999999999,,,,,,,,,,,,,,,,,,,,Voi,37311.0,VOI Bern - Schosshalde,
"Chasseralstrasse 156, 3095 Bern",,3095,Bern,Bern,,46.9264999,7.433204,,,,,,,,,,,,,,,,,,,,Voi,37325.0,VOI Bern - Spiegel,
"Viktoriastrasse 49, 3013 Bern",,3013,Bern,Bern,,46.9536931,7.454492399999999,,,,,,,,,,,,,,,,,,,,Voi,37334.0,VOI Bern - Viktoriastrasse,
"Holligerplatz 1, 3008 Bern",,3008,Bern,Bern,,46.9465707,7.415764100000001,,,,,,,,,,,,,,,,,,,,Voi,37351.0,VOI Bern Warmbächli,
"Aargauerstrasse 16, 6215 Beromünster",,6215,Beromünster,Luzern,,47.2096934,8.1917106,,,,,,,,,,,,,,,,,,,,Voi,77350.0,VOI Beromünster,
"Dorfstrasse 12, 2544 Bettlach",,2544,Bettlach,Solothurn,,47.1995155,7.4263239,,,,,,,,,,,,,,,,,,,,Voi,37314.0,VOI Bettlach,
"Jakob-Stämpflistrasse 112, 2502 Biel/Bienne",,2502,Biel,Bern,,47.1454426,7.2632642,,,,,,,,,,,,,,,,,,,,Voi,37345.0,VOI Biel - Jardin du Paradis,
"Schollstrasse 2, 2504 Biel/Bienne",,2504,Biel,Bern,,47.1427235,7.2720206,,,,,,,,,,,,,,,,,,,,Voi,37319.0,VOI Biel - Mett,
"Kernstrasse 9, 3067 Boll",,3067,Boll,Bern,,46.95471089999999,7.547880600000001,,,,,,,,,,,,,,,,,,,,Voi,37339.0,VOI Boll,
"Schachenstrasse 115, 8906 Bonstetten",,8906,Bonstetten,Zürich,,47.32531549999999,8.4723525,,,,,,,,,,,,,,,,,,,,Voi,150816.0,VOI Bonstetten,
"Hauptstrasse 17, 2555 Brügg BE",,2555,Brügg,Bern,,47.1238311,7.280347700000001,,,,,,,,,,,,,,,,,,,,Voi,37307.0,VOI Brügg,
"Meierwiesenstrasse 20, 8107 Buchs",,8107,Buchs,Zürich,,47.4561183,8.4399277,,,,,,,,,,,,,,,,,,,,Voi,150802.0,VOI Buchs ZH,
"Sagipark 7, 6233 Büron",,6233,Büron,Luzern,,47.21325179999999,8.094478,,,,,,,,,,,,,,,,,,,,Voi,77354.0,VOI Büron,
"Grundstrasse 1, 4657 Dulliken",,4657,Dulliken,Solothurn,,47.3543347,7.934487,,,,,,,,,,,,,,,,,,,,Voi,37321.0,VOI Dulliken,
"Place du Cirque 2, 1204 Genève",,1204,Genève,Genève,,46.2010503,6.1399726,,,,,,,,,,,,,,,,,,,,Voi,49100.0,VOI Genève-Cirque,
"Huebwiesenstrasse 26b, 8954 Geroldswil",,8954,Geroldswil,Zürich,,47.4214637,8.411611299999999,,,,,,,,,,,,,,,,,,,,Voi,150806.0,VOI Geroldswil,
"Rue du Borgeaud 10d, 1196 Gland",,1196,Gland,Vaud,,46.4232148,6.2617964,,,,,,,,,,,,,,,,,,,,Voi,49102.0,VOI Gland,
"Dorfstrasse 155, 3818 Grindelwald",,3818,Grindelwald,Bern,,46.623604,8.039067,,,,,,,,,,,,,,,,,,,,Voi,37308.0,VOI Grindelwald,
"Seestrasse 288, 8810 Horgen",,8810,Horgen,Zürich,,47.2551087,8.6116263,,,,,,,,,,,,,,,,,,,,Voi,150803.0,VOI Horgen,
"Moosgasse 7, 3232 Ins",,3232,Ins,Bern,,47.0040626,7.1070969,,,,,,,,,,,,,,,,,,,,Voi,37324.0,VOI Ins,
"Solothurnstrasse 24, 3303 Jegenstorf",,3303,Jegenstorf,Bern,,47.0514348,7.510330100000001,,,,,,,,,,,,,,,,,,,,Voi,37323.0,VOI Jegenstorf,
"Mittelgäustrasse 22, 4616 Kappel SO",,4616,Kappel,Solothurn,,47.3236429,7.8468992,,,,,,,,,,,,,,,,,,,,Voi,37344.0,VOI Kappel,
"Bahnhofstrasse 3, 8802 Kilchberg ZH",,8802,Kilchberg,Zürich,,47.3238482,8.5487337,,,,,,,,,,,,,,,,,,,,Voi,150813.0,VOI Kilchberg,
"Könizstrasse 251, 3097 Liebefeld",,3097,Liebefeld,Bern,,46.9287029,7.4167025,,,,,,,,,,,,,,,,,,,,Voi,37355.0,VOI Köniz-Neuhausplatz,
"Bielstrasse 35, 2543 Lengnau BE",,2543,Lengnau,Bern,,47.1807898,7.363115199999999,,,,,,,,,,,,,,,,,,,,Voi,37328.0,VOI Lengnau,
"Augustin Keller-Strasse 19, 5600 Lenzburg",,5600,Lenzburg,Aargau,,47.3887267,8.1698484,,,,,,,,,,,,,,,,,,,,Voi,37356.0,VOI Lenzburg,
"Abendweg 46, 6006 Luzern",,6006,Luzern,Aargau,,47.0606349,8.315586999999999,,,,,,,,,,,,,,,,,,,,Voi,77355.0,VOI Luzern Wesemlin,
"3, place de la Diversité, 1217 Meyrin",,1217,Meyrin,Genève,,46.2306228,6.0678463,,,,,,,,,,,,,,,,,,,,Voi,49101.0,VOI Meyrin - Les Vergers,
"Wydenstrasse 9, 4704 Niederbipp",,4704,Niederbipp,Solothurn,,47.2696768,7.692324600000001,,,,,,,,,,,,,,,,,,,,Voi,37316.0,VOI Niederbipp,
"Aarestrasse 49, 5013 Niedergösgen",,5013,Niedergösgen,Solothurn,,47.37182929999999,7.9937023,,,,,,,,,,,,,,,,,,,,Voi,37317.0,VOI Niedergösgen,
"Lenzburgerstrasse 2, 5702 Niederlenz",,5702,Niederlenz,Aargau,,47.398305,8.1771456,,,,,,,,,,,,,,,,,,,,Voi,37336.0,VOI Niederlenz,
"Moosstrasse 2, 5443 Niederrohrdorf",,5443,Niederrohrdorf,Aargau,,47.4249253,8.3001316,,,,,,,,,,,,,,,,,,,,Voi,37346.0,VOI Niederrohrdorf,
"Dorfstrasse 19, 4914 Roggwil",,4914,Roggwil,Bern,,47.239524,7.822110799999999,,,,,,,,,,,,,,,,,,,,Voi,37329.0,VOI Roggwil,
"Bibersteinstrasse 4, 5022 Rombach",,5022,Rombach,Aargau,,47.4016779,8.044495699999999,,,,,,,,,,,,,,,,,,,,Voi,37309.0,VOI Rombach,
"Lindenstrasse 16, 8153 Rümlang",,8153,Rümlang,Zürich,,47.4497704,8.5316753,,,,,,,,,,,,,,,,,,,,Voi,150808.0,VOI Rümlang,
"Güterstrasse 1A, 5745 Safenwil",,5745,Safenwil,Aargau,,47.3210566,7.985461699999999,,,,,,,,,,,,,,,,,,,,Voi,37341.0,VOI Safenwil,
"Seetalstrasse 117, 5503 Schafisheim",,5503,Schafisheim,Aargau,,47.3757681,8.143901999999999,,,,,,,,,,,,,,,,,,,,Voi,37347.0,VOI Schafisheim,
"Bahnstrasse 14, 8603 Schwerzenbach",,8603,Schwerzenbach,Zürich,,47.3853514,8.6588466,,,,,,,,,,,,,,,,,,,,Voi,150810.0,VOI Schwerzenbach,
"Unterdorfstrasse 7a, 5707 Seengen",,5707,Seengen,Aargau,,47.3248577,8.2036327,,,,,,,,,,,,,,,,,,,,Voi,37312.0,VOI Seengen,
"Oberstadt 6, 6204 Sempach Stadt",,6204,Sempach,Luzern,,47.13621939999999,8.192007,,,,,,,,,,,,,,,,,,,,Voi,77351.0,VOI Sempach Stadt,
"Glarnerstrasse 36, 8854 Siebnen",,8854,Siebnen,Schwyz,,47.1753946,8.900575300000002,,,,,,,,,,,,,,,,,,,,Voi,150807.0,VOI Siebnen,
"Marktgasse 2, 6370 Stans",,6370,Stans,Nidwalden,,46.9565321,8.366423,,,,,,,,,,,,,,,,,,,,Voi,77356.0,VOI Stans,
"Bahnhofstrasse 87, 3613 Steffisburg",,3613,Steffisburg,Bern,,46.7733401,7.616434299999999,,,,,,,,,,,,,,,,,,,,Voi,37337.0,VOI Steffisburg,
"Bernstrasse 57, 3066 Stettlen",,3066,Stettlen,Bern,,46.9588294,7.523622,,,,,,,,,,,,,,,,,,,,Voi,37361.0,VOI Stettlen,
"Langenthalerstrasse 1, 4802 Strengelbach",,4802,Strengelbach,Aargau,,47.2784613,7.928628799999999,,,,,,,,,,,,,,,,,,,,Voi,37302.0,VOI Strengelbach,
"Hauptstrasse 65, 2557 Studen",,2557,Studen,Bern,,47.1141569,7.301450099999999,,,,,,,,,,,,,,,,,,,,Voi,37331.0,VOI Studen,
"Spitalstrasse 10, 3454 Sumiswald",,3454,Sumiswald,Bern,,47.0288633,7.746411299999999,,,,,,,,,,,,,,,,,,,,Voi,37318.0,VOI Sumiswald,
"Panoramastrasse 1a, 3600 Thun",,3600,Thun,Bern,,46.7548973,7.6310446,,,,,,,,,,,,,,,,,,,,Voi,37348.0,VOI Thun Bahnhof,
"Chäppeligasse 5, 4632 Trimbach",,4632,Trimbach,Solothurn,,47.3688467,7.894377,,,,,,,,,,,,,,,,,,,,Voi,37304.0,VOI Trimbach,
"Böhlerstrasse 2, 5726 Unterkulm",,5726,Unterkulm,Aargau,,47.310751,8.1136799,,,,,,,,,,,,,,,,,,,,Voi,37326.0,VOI Unterkulm,
"alla Chiesa 2, 6962 Viganello",,6962,Viganello,Ticino,,46.0123679,8.969114900000001,,,,,,,,,,,,,,,,,,,,Voi,127610.0,VOI Viganello,
"Seftigenstrasse 259, 3084 Wabern",,3084,Wabern,Bern,,46.92891950000001,7.4521398,,,,,,,,,,,,,,,,,,,,Voi,37313.0,VOI Wabern,
"Schäfligrabenstrasse 45, 8304 Wallisellen",,8304,Wallisellen,Zürich,,47.4197801,8.5975557,,,,,,,,,,,,,,,,,,,,Voi,150815.0,VOI Wallisellen,
"Vorstadt 14, 3380 Wangen an der Aare",,3380,Wangen,Bern,,47.233916,7.6554031,,,,,,,,,,,,,,,,,,,,Voi,37315.0,VOI Wangen a. Aare,
"Dorfplatz 1, 3114 Wichtrach",,3114,Wichtrach,Bern,,46.851012,7.575368399999999,,,,,,,,,,,,,,,,,,,,Voi,37333.0,VOI Wichtrach,
"Hauptstrasse 27, 3812 Wilderswil",,3812,Wilderswil,Bern,,46.66603809999999,7.869029899999999,,,,,,,,,,,,,,,,,,,,Voi,37332.0,VOI Wilderswil,
"Langnaustr. 16, 3436 Zollbrück",,3436,Zollbrück,Bern,,46.9730114,7.748035999999999,,,,,,,,,,,,,,,,,,,,Voi,37342.0,VOI Zollbrück,
"Grünauring 37, 8064 Zürich",,8064,Zürich,Zürich,,47.3963579,8.4862828,,,,,,,,,,,,,,,,,,,,Voi,150801.0,VOI Zürich - Grünau,
"Hönggerstrasse 117, 8037 Zürich",,8037,Zürich,Zürich,,47.3952772,8.518380500000001,,,,,,,,,,,,,,,,,,,,Voi,150812.0,VOI Zürich - Hönggerstrasse,
"Letzigraben 239, 8047 Zürich",,8047,Zürich,Zürich,,47.3704459,8.492860199999999,,,,,,,,,,,,,,,,,,,,Voi,150804.0,VOI Zürich - In der Ey,
"Ankenweid 10, 8041 Zürich",,8041,Zürich,Zürich,,47.3297347,8.515297499999999,,,,,,,,,,,,,,,,,,,,Voi,150809.0,VOI Zürich - Leimbach,
"Paradiesstrasse 3, 8038 Zürich",,8038,Zürich,Zürich,,47.3347475,8.5295276,,,,,,,,,,,,,,,,,,,,Voi,150805.0,VOI Zürich - Paradies,
"Grand-Rue 23, 1337 Vallorbe",,1337,Vallorbe,Vaud,,46.7119013,6.3777699,,,,,,,,,,,,,,,,,,,,M-Migros,63740.0,Vallorbe,
"Les Arcades, 1936 Verbier",,1936,Verbier,Valais,,46.096499,7.2230471,,,,,,,,,,,,,,,,,,,,M-Migros,134240.0,Verbier,
"Route de Peney 2-4, 1214 Vernier",,1214,Vernier,Genève,,46.216972,6.0837772,,,,,,,,,,,,,,,,,,,,M-Migros,44860.0,Vernier - Arcenter,
"Av. Gustave Coindet 11, 1800 Vevey",,1800,Vevey,Vaud,,46.4636426,6.8402781,,,,,,,,,,,,,,,,,,,,MM-Migros,64420.0,Vevey - Midi Coindet,
"Rue des Moulins 5 b, 1800 Vevey",,1800,Vevey,Vaud,,46.4646969,6.842102199999999,,,,,,,,,,,,,,,,,,,,M-Migros,63635.0,Vevey Des 2 Gares,"Geschlossen, geöffnet ab 28.03."
"Schulhausstrasse 2, 5612 Villmergen",,5612,Villmergen,Aargau,,47.3475086,8.2444349,,,,,,,,,,,,,,,,,,,,M-Migros,33613.0,Villmergen,
"Route du Léman 33, 1895 Vionnaz",,1895,Vionnaz,Valais,,46.3135922,6.8985242,,,,,,,,,,,,,,,,,,,,Migros-Partner,137200.0,Vionnaz,
"Brückenweg 10, 3930 Visp",,3930,Visp,Valais,,46.29307000000001,7.879561799999999,,,,,,,,,,,,,,,,,,,,MM-Migros,134480.0,Visp,
"Im Zentrum 18, 8604 Volketswil",,8604,Volketswil,Zürich,,47.3888666,8.6804591,,,,,,,,,,,,,,,,,,,,MM-Migros,150061.0,Volketswil,
"Rue de la Lizerne 7, 1963 Vétroz",,1963,Vétroz,Valais,,46.2153568,7.2600276,,,,,,,,,,,,,,,,,,,,Migros-Partner,137201.0,Vétroz,
"Seftigenstrasse 368, 3084 Wabern",,3084,Wabern,Bern,,46.9224696,7.459706499999999,,,,,,,,,,,,,,,,,,,,MM-Migros,34350.0,Wabern - Chly Wabere,
"Bahnhofstrasse 20, 8636 Wald ZH",,8636,Wald,Zürich,,47.2748977,8.9147502,,,,,,,,,,,,,,,,,,,,M-Migros,93770.0,Wald ZH,
"Bahnhofstrasse 27, 8880 Walenstadt",,8880,Walenstadt,Zürich,,47.1218486,9.3134751,,,,,,,,,,,,,,,,,,,,M-Migros,90337.0,Walenstadt,
"Bahnhofstrasse 30, 8304 Wallisellen",,8304,Wallisellen,Zürich,,47.4135032,8.5918317,,,,,,,,,,,,,,,,,,,,M-Migros,150163.0,Wallisellen,
"Neue Winterthurerstrasse 99, 8304 Wallisellen",,8304,Wallisellen,Zürich,,47.4088791,8.5953754,,,,,,,,,,,,,,,,,,,,MMM-Migros,150670.0,Wallisellen - Glattzentrum,
"Bahnhofstrasse 19, 9630 Wattwil",,9630,Wattwil,St. Gallen,,47.29923400000001,9.087404,,,,,,,,,,,,,,,,,,,,MM-Migros,90452.0,Wattwil,
"Luzernerstrasse 44, 6353 Weggis",,6353,Weggis,Luzern,,47.0340043,8.4259411,,,,,,,,,,,,,,,,,,,,Migros-Partner,77290.0,Weggis,
"Tribschenstrasse 62, 6005 Luzern",,6005,Luzern,Aargau,,47.0423617,8.3167226,,,,,,,,,,,,,,,,,,,,M-Migros,73170.0,Weinbergli Luzern,
"Amriswilerstrasse 12, 8570 Weinfelden",,8570,Weinfelden,Zürich,,47.5675849,9.1107625,,,,,,,,,,,,,,,,,,,,MM-Migros,90455.0,Weinfelden - Rösslifelsen,
"Weststrasse 27/29, 8570 Weinfelden",,8570,Weinfelden,Zürich,,47.5674362,9.0941682,,,,,,,,,,,,,,,,,,,,M-Migros,90387.0,Weinfelden Weststrasse,
"Landstrasse 69, 5430 Wettingen",,5430,Wettingen,Aargau,,47.46711380000001,8.3241973,,,,,,,,,,,,,,,,,,,,MM-Migros,34323.0,Wettingen - Landstrasse,
"Bahnhofstrasse 151, 8620 Wetzikon",,8620,Wetzikon,Zürich,,47.3283228,8.7993433,,,,,,,,,,,,,,,,,,,,MMM-Migros,94720.0,Wetzikon - Züri-Oberland-Märt,
"Bahnhofstrasse 2, 9443 Widnau",,9443,Widnau,Zürich,,47.4075159,9.628952,,,,,,,,,,,,,,,,,,,,MM-Migros,90458.0,Widnau - Rhydorf-Center,
"Obere Bahnhofstrasse 5, 9500 Wil SG",,9500,Wil,Zürich,,47.4626579,9.042737,,,,,,,,,,,,,,,,,,,,MM-Migros,90461.0,Wil SG,
"Bruggerstrasse 11 c, 5103 Wildegg",,5103,Wildegg,Aargau,,47.416304,8.1664129,,,,,,,,,,,,,,,,,,,,M-Migros,33793.0,Wildegg,
"Ettiswilerstrasse 14, 6130 Willisau",,6130,Willisau,Luzern,,47.1237225,7.9948564,,,,,,,,,,,,,,,,,,,,M-Migros,73780.0,Willisau - Chrüzhof,
"Bachmattstrasse 35, 5210 Windisch",,5210,Windisch,Aargau,,47.4746865,8.2126997,,,,,,,,,,,,,,,,,,,,M-Migros,33703.0,Windisch,
"Wülflingerstrasse 71, 8400 Winterthur",,8400,Winterthur,Zürich,,47.5068421,8.7121959,,,,,,,,,,,,,,,,,,,,M-Migros,93610.0,Winterthur - Blumenau,
"Pflanzschulstrasse 9, 8400 Winterthur",,8400,Winterthur,Zürich,,47.4947443,8.740240499999999,,,,,,,,,,,,,,,,,,,,M-Migros,93810.0,Winterthur - Deutweg,
"Hintermühlenstrasse 4, 8409 Winterthur",,8409,Winterthur,Zürich,,47.5042359,8.772159799999999,,,,,,,,,,,,,,,,,,,,M-Migros,93680.0,Winterthur - Hegi,
"Strickerstrasse 3, 8400 Winterthur",,8400,Winterthur,Zürich,,47.499456,8.7207168,,,,,,,,,,,,,,,,,,,,MMM-Migros,94730.0,Winterthur - Neuwiesen,
"Stadthausstrasse 31, 8400 Winterthur",,8400,Winterthur,Zürich,,47.500083,8.731833199999999,,,,,,,,,,,,,,,,,,,,M-Migros,93120.0,Winterthur - Obertor,
"Guggenbühlstrasse 1, 8404 Winterthur",,8404,Winterthur,Zürich,,47.511005,8.7588005,,,,,,,,,,,,,,,,,,,,MM-Migros,94250.0,Winterthur - Oberwinterthur,
