Address,Street Name,Zip Code,City,Canton,Country,Latitude,Longitude,Rating,Number of Ratings,Place Name,Place ID,Sunday_Open,Monday_Open,Tuesday_Open,Wednesday_Open,Thursday_Open,Friday_Open,Saturday_Open,Sunday_Close,Monday_Close,Tuesday_Close,Wednesday_Close,Thursday_Close,Friday_Close,Saturday_Close
"Konstanzerstrasse 11, 9512 Rossrüti, Switzerland",Konstanzerstrasse 11,9512,Rossrüti,St. Gallen,Switzerland,47.4732242,9.0599045,4.5,188,Spar,ChIJJS62HuPrmkcRsuLAmO-Ircs,,0700,0700,0700,0700,0700,0700,,1900,1900,1900,1900,1900,1700
"Winterthurerstrasse 4, 8360 Eschlikon, Switzerland",Winterthurerstrasse 4,8360,Eschlikon,Zürich,Switzerland,47.4623775,8.955030200000001,4.2,122,SPAR Supermarkt Eschlikon,ChIJ1zIv9tGUmkcRAzuznQ7VrAQ,,0700,0700,0700,0700,0700,0700,,1900,1900,1900,1900,1900,1700
"Hauptstrasse 129, 8272 Ermatingen, Switzerland",Hauptstrasse 129,8272,Ermatingen,Zürich,Switzerland,47.6689783,9.084604299999999,4.4,133,SPAR Supermarkt Ermatingen,ChIJt7S6SVr0mkcRWV4zU8NrixQ,,0630,0630,0630,0630,0630,0630,,2000,2000,2000,2000,2000,2000
"Weinfelderstrasse 74, 8580 Amriswil, Switzerland",Weinfelderstrasse 74,8580,Amriswil,Thurgau,Switzerland,47.54479200000001,9.285347900000001,4.1,229,SPAR Supermarkt Amriswil mit TS Tamoil,ChIJDeakRFXjmkcRUWMlBPZGGl0,0800,0600,0600,0600,0600,0600,0600,2000,2200,2200,2200,2200,2200,2200
"Zürcherstrasse 369, 8500 Frauenfeld, Switzerland",Zürcherstrasse 369,8500,Frauenfeld,Thurgau,Switzerland,47.56961010000001,8.9179547,,,SPAR express,ChIJ7-eEDl-TmkcRkHAAke4Eh_o,,,,,,,,,,,,,,
"Bahnhofstrasse 1, 8575 Bürglen, Switzerland",Bahnhofstrasse 1,8575,Bürglen,Thurgau,Switzerland,47.549372,9.152817400000002,4.2,170,SPAR Supermarkt Bürglen,ChIJ1Q2lrNvvmkcRIHexhnt2bIw,,0700,0700,0700,0700,0700,0700,,1900,1900,1900,1900,1900,1700
"Weinstrasse 23/25, 8280 Kreuzlingen, Switzerland",Weinstrasse 23/25,8280,Kreuzlingen,Zürich,Switzerland,47.64462949999999,9.1861407,4,251,SPAR Supermarkt Kreuzlingen,ChIJZzLReDr3mkcRf5IWGqRRyk8,0800,0600,0600,0600,0600,0600,0600,2000,2200,2200,2200,2200,2200,2200
"Ulrich-Röschstrasse 3/4, 9403 Goldach, Switzerland",Ulrich-Röschstrasse 3/4,9403,Goldach,Zürich,Switzerland,47.47442849999999,9.4659853,4.1,94,SPAR Supermarkt Goldach,ChIJQZ10eIwbm0cRysqSC6cg9aw,,0700,0700,0700,0700,0700,0700,,1900,1900,1900,1900,1900,1700
"Jonschwilerstrasse 12, 9536 Schwarzenbach, Switzerland",Jonschwilerstrasse 12,9536,Schwarzenbach,St. Gallen,Switzerland,47.4117378,9.0885942,4.5,116,SPAR Supermarkt Schwarzenbach,ChIJn3xdCZ_pmkcRaU4bEkq8bos,,1330,1330,1330,1330,1330,0700,,1900,1900,1900,1900,1900,1700
"Breitschachenstrasse 8, 9032 Engelburg&nbsp, Switzerland",Breitschachenstrasse 8,9032,Engelburg&nbsp,Zürich,Switzerland,47.4420343,9.3488355,4.1,195,SPAR Supermarkt Engelburg,ChIJkWN-Sycdm0cRSC9oaSC-c3M,,0700,0700,0700,0700,0700,0700,,2000,2000,2000,2000,2000,1700
"Gründenstrasse 5, 8247 Flurlingen, Switzerland",Gründenstrasse 5,8247,Flurlingen,Schaffhausen,Switzerland,47.68442880000001,8.627481300000001,4.4,52,SPAR,ChIJg_siWFB_kEcRpPdX2f0dchU,,0700,0700,0700,0700,0700,0700,,1900,1900,1900,1900,1900,1900
"Mühlebachstrasse 1, 9230 Flawil, Switzerland",Mühlebachstrasse 1,9230,Flawil,Zürich,Switzerland,47.41633940000001,9.1729898,4.2,79,SPAR Supermarkt Flawil,ChIJsWvpIL7nmkcRTeTzyXy3nuU,,1330,1330,1330,1330,1330,0800,,1830,1830,1830,1830,1830,1700
"Neudorf 2, 9245 Oberbüren, Switzerland",Neudorf 2,9245,Oberbüren,Zürich,Switzerland,47.4513968,9.1603307,4,69,SPAR Supermarkt Oberbüren,ChIJL4TIsSbmmkcRwloUmrd8J40,,1400,1400,1400,1400,1400,0700,,1830,1830,1830,1830,1830,1600
"Bischofszellerstrasse 346, 9212 Arnegg, Switzerland",Bischofszellerstrasse 346,9212,Arnegg,Zürich,Switzerland,47.443506,9.255942,4.2,118,SPAR Supermarkt Arnegg,ChIJuxtD7TPhmkcRDEjvIJ5cYeI,,0800,0800,0800,0800,0800,0700,,1830,1830,1830,1830,1830,1700
"Arneggerstrasse 11, 9204 Andwil, Switzerland",Arneggerstrasse 11,9204,Andwil,Zürich,Switzerland,47.439564,9.267450000000002,4.6,101,SPAR Supermarkt Andwil,ChIJaynbaTvhmkcR3Smjpfhccc8,,0600,0600,0600,0600,0600,0600,,1900,1900,1900,1900,1900,1700
"Freier Pl. 2, 8200 Schaffhausen, Switzerland",Freier Pl. 2,8200,Schaffhausen,Schaffhausen,Switzerland,47.69551499999999,8.640285999999998,4.2,148,SPAR Supermarkt Schaffhausen,ChIJc8Tb_9-BmkcRU0dgSnMvZ3A,,0700,0700,0700,0700,0700,0700,,2000,2000,2000,2000,2000,2000
"Stettemerstrasse 40, 8207 Schaffhausen, Switzerland",Stettemerstrasse 40,8207,Schaffhausen,Schaffhausen,Switzerland,47.7223304,8.655230699999999,4.3,157,SPAR Supermarkt,ChIJsxOxaCmAmkcRTOMDCVbFo9g,0900,0630,0630,0630,0630,0630,0630,1800,1900,1900,1900,1900,1900,1900
"Tösstalstrasse 139, 8400 Winterthur, Switzerland",Tösstalstrasse 139,8400,Winterthur,Zürich,Switzerland,47.49065539999999,8.748234300000002,4,198,SPAR Supermarkt Winterthur Tösstalstrasse,ChIJp5J1OZWZmkcROzT5bI5e6XA,,0700,0700,0700,0700,0700,0700,,2200,2200,2200,2200,2200,2000
"Auwiesenstrasse 24, 9030 Abtwil SG, Switzerland",Auwiesenstrasse 24,9030,Abtwil,Zürich,Switzerland,47.42255590000001,9.3179118,4.3,126,SPAR Supermarkt Abtwil,ChIJlZzlLcvhmkcRsCg3wyLlf7I,,0700,0700,0700,0700,0700,0700,,1900,1900,1900,1900,1900,1700
"Breitestrasse 117, 8400 Winterthur, Switzerland",Breitestrasse 117,8400,Winterthur,Zürich,Switzerland,47.490607,8.7211286,4.4,93,SPAR,ChIJvZrzLwuZmkcR7AcCHNmhdS0,,0700,0700,0700,0700,0700,0700,,2000,2000,2000,2000,2000,1900
"Rossbodenstrasse 18, 7000 Chur, Switzerland",Rossbodenstrasse 18,7000,Chur,Graubünden,Switzerland,46.8520538,9.5055369,,,SPAR express,ChIJqXAdPQTHhEcRCvaVBrWz8aY,0800,0600,0600,0600,0600,0600,0700,1900,1900,1900,1900,1900,1900,1900
"Städtli 3, 7304 Maienfeld, Switzerland",Städtli 3,7304,Maienfeld,Graubünden,Switzerland,47.0073942,9.5312364,4.4,127,SPAR Supermarkt Maienfeld,ChIJL0pB-KPLhEcR11gxyIvFPmo,,0730,0730,0730,0730,0730,0730,,1900,1900,1900,1900,1900,1700
"Grossfeldstrasse 20, 7310 Bad Ragaz, Switzerland",Grossfeldstrasse 20,7310,Bad,Graubünden,Switzerland,47.0063244,9.4996973,4.1,198,SPAR Supermarkt Bad Ragaz,ChIJ9Z9UC3jMhEcRdYJOxZmMhyI,,0700,0700,0700,0700,0700,0700,,1900,1900,1900,1900,1900,1700
"Voa Nova 27, 7078 Lenzerheide, Switzerland",Voa Nova 27,7078,Lenzerheide,Graubünden,Switzerland,46.7252518,9.557642800000002,4.4,80,SPAR Supermarkt Lenzerheide,ChIJz3BSTYKVhEcRaMPS3W4Fh0c,1400,0700,0700,0700,0700,0700,0700,1800,1830,1830,1830,1830,1830,1800
"Via Gonda 12, 7180 Disentis/Mustér, Switzerland",Via Gonda 12,7180,Disentis/Mustér,Graubünden,Switzerland,46.701897,8.8516157,4.4,193,SPAR Supermarkt Disentis,ChIJre2H7jsRhUcRc25W9ISep_Q,,0700,0700,0700,0700,0700,0700,,1900,1900,1900,1900,1900,1700
"von Salis-Strasse 33, 7212 Seewis im Prättigau, Switzerland",von Salis-Strasse 33,7212,Seewis,Graubünden,Switzerland,46.9901211,9.63792,4.6,39,SPAR Supermarkt Seewis,ChIJmejOubO1hEcRmEEaI394uJE,,1400,1400,1400,1400,1400,1400,,1830,1830,1830,1830,1830,1600
"Talstrasse 8, 7270 Davos, Switzerland",Talstrasse 8,7270,Davos,Graubünden,Switzerland,46.7934808,9.823408800000001,4.2,169,EUROSPAR Supermarkt Davos Platz,ChIJLRsaH6umhEcRSt5Utpv0ZoU,0700,0700,0700,0700,0700,0700,0700,1800,1900,1900,1900,1900,1900,1800
"Sarganserstrasse 7, 7324 Vilters-Wangs, Switzerland",Sarganserstrasse 7,7324,Vilters-Wangs,Graubünden,Switzerland,47.02484339999999,9.451435,4.6,23,SPAR Supermarkt Vilters,ChIJ-dKD-APNhEcRSIRrAODgDAQ,,1330,1330,1330,1330,1330,0700,,1830,1830,1830,1830,1830,1700
"Narasca, 7472 Surava, Switzerland",Narasca,7472,Surava,Graubünden,Switzerland,46.6647758,9.6124468,5,2,SPAR Go24 Surava,ChIJ3Xm4UKqXhEcRgww2EGuYoGA,0000,,,,,,,,,,,,,
"Doggilochstrasse 96, 7250 Klosters-Serneus, Switzerland",Doggilochstrasse 96,7250,Klosters-Serneus,Graubünden,Switzerland,46.8617527,9.892441100000001,4.6,72,Spar Supermarket,ChIJy0PbsSOnhEcRdk0PJhDP0Zs,0600,0630,0630,0630,0630,0630,0630,1300,1830,1830,1830,1830,1830,1700
"Masanserstrasse 133, 7000 Chur, Switzerland",Masanserstrasse 133,7000,Chur,Graubünden,Switzerland,46.8610885,9.534178399999998,,,AVIA SPAR express,ChIJXYB-7EHHhEcRrBqnK9ngawY,0800,0600,0600,0600,0600,0600,0700,2100,2100,2100,2100,2100,2100,2100
"Staatsstrasse 94, 8888 Heiligkreuz, Switzerland",Staatsstrasse 94,8888,Heiligkreuz,Zürich,Switzerland,47.058937,9.4112642,4.4,80,SPAR Supermarkt Heiligkreuz,ChIJH4fMT6zShEcRSc7wYxzzql4,,0700,0700,0700,0700,0700,0700,,1900,1900,1900,1900,1900,1700
"Bleicherstrasse 12, 6003 Luzern, Switzerland",Bleicherstrasse 12,6003,Luzern,Luzern,Switzerland,47.0424514,8.306144000000002,4.1,119,SPAR Supermarkt Luzern-Neustadt,ChIJc9wCzaX7j0cRzvoZYmPJ050,,0700,0700,0700,0700,0700,0700,,1900,1900,1900,2000,1900,1700
"Dorfstrasse 31/a, 6005 Luzern, Switzerland",Dorfstrasse 31/a,6005,Luzern,Luzern,Switzerland,47.0379769,8.3156349,4.3,151,SPAR,ChIJCZHryLD7j0cRi9fh55n1cvQ,,0615,0615,0615,0615,0615,0615,,1900,1900,1900,1900,1900,1700
"Papiermühlestrasse 11, 3013 Bern, Switzerland",Papiermühlestrasse 11,3013,Bern,Bern,Switzerland,46.9547484,7.460063099999999,4.2,167,SPAR express Bern-Papiermühlestrasse,ChIJtdMb5-Y5jkcRWMUvdubWIRk,0600,0600,0600,0600,0600,0600,0600,2200,2200,2200,2200,2200,2200,2200
"Könizstrasse 155, 3097 Liebefeld, Switzerland",Könizstrasse 155,3097,Liebefeld,Bern,Switzerland,46.9360583,7.416579899999999,4.2,165,SPAR Supermarkt Liebefeld,ChIJsSI0uqo5jkcRHoNmRo_-I7M,,0630,0630,0630,0630,0630,0800,,2000,2000,2000,2000,2000,1700
"Freiburgstrasse 528, 3172 Köniz, Switzerland",Freiburgstrasse 528,3172,Köniz,Bern,Switzerland,46.9274208,7.379720999999999,4,49,SPAR express Niederwangen,ChIJXaqONsU4jkcRSrGhpPQiv1I,0700,0600,0600,0600,0600,0600,0700,2200,2200,2200,2200,2200,2200,2200
"Giacomettistrasse 15, 3006 Bern, Switzerland",Giacomettistrasse 15,3006,Bern,Bern,Switzerland,46.9451436,7.473101099999999,4.2,69,SPAR express Bern Giacomettistr.,ChIJBUptO2Q3jkcRHJj0bEg191o,0730,0600,0600,0600,0600,0600,0630,2200,2200,2200,2200,2200,2200,2200
"Viktoriastrasse 49, 3013 Bern, Switzerland",Viktoriastrasse 49,3013,Bern,Bern,Switzerland,46.95363609999999,7.4545514,,,SPAR Supermarkt Bern,ChIJ3cCTbeg5jkcRkyF48LTfx7I,,,,,,,,,,,,,,
"Rte de Riddes 301, 1994 Aproz (Nendaz, Switzerland",Rte de Riddes 301,1994,Aproz,Valais,Switzerland,46.205309,7.305251600000002,4.8,108,Spassion S.A.,ChIJU4182_LfjkcRliN19kDO0e8,,,,,,1400,1400,,,,,,1800,1700
"Schluhmattstrasse 1, 3920 Zermatt, Switzerland",Schluhmattstrasse 1,3920,Zermatt,Valais,Switzerland,46.0187012,7.748404799999999,4.1,95,SPAR express Zermatt,ChIJpwHmebs1j0cREq6hybT7ykI,0700,0700,0700,0700,0700,0700,0700,1900,1900,1900,1900,1900,1900,1900
"Chemin des Rottes 27, 1907, 2 Saxon, Switzerland",Chemin des Rottes 27,1907,Saxon,Valais,Switzerland,46.14195480000001,7.1583678,4.7,10,RM-SPAS - HotSpring,ChIJ74S6InvIjkcR9qTJOmC3_Qs,,,,,,,,,,,,,,
"Rte de Chippis 33A, 3966 Chalais, Switzerland",Rte de Chippis 33A,3966,Chalais,Valais,Switzerland,46.270143,7.515552999999999,,,Wellis Valais par Valpool - magasin de spas,ChIJY9601AAfj0cRLbHbRghOyho,,1300,1300,1300,1300,1300,,,1730,1730,1730,1730,1730,
"Av. Maurice-Troillet 84, 1950 Sion, Switzerland",Av. Maurice-Troillet 84,1950,Sion,Valais,Switzerland,46.2259704,7.335643399999998,3.8,37,Piscines Spas' Sion,ChIJZ1q0AZ_ejkcReycN0OPLLfE,,1330,1330,1330,1330,1330,0900,,1800,1800,1800,1800,1800,1200
"Av. de la Gare 43a, 1964 Conthey, Switzerland",Av. de la Gare 43a,1964,Conthey,Valais,Switzerland,46.2259708,7.303433199999999,4.7,12,Ebullition Spas Center,ChIJq6q6bC_cjkcRmDWW7FS0rOU,,1330,1330,1330,1300,1300,0900,,1700,1700,1700,1700,1700,1700
"Rte des Bains 93, 1911 Ovronnaz, Switzerland",Rte des Bains 93,1911,Ovronnaz,Valais,Switzerland,46.1986903,7.1753084,3.8,3820,Les Bains d'Ovronnaz,ChIJdT3SWLrGjkcRM2U385l2d1c,0900,0900,0900,0900,0900,0900,0900,2000,2000,2000,2000,2000,2100,2100
"Av. Maurice-Troillet 84, 1950 Sion, Switzerland",Av. Maurice-Troillet 84,1950,Sion,Valais,Switzerland,46.2259704,7.335643399999998,,,Be Well Canada spa Sion,ChIJ1e1_VmjfjkcR9cQbkhwc5cw,,,,,,,,,,,,,,
"Rte de Mauvoisin 209, 1947 Champsec (Versegères), Switzerland",Rte de Mauvoisin 209,1947,Champsec,Valais,Switzerland,46.0581219,7.241457099999999,5,2,Les Bains de Bagnes Sàrl,ChIJ4c5QgPLRjkcRXEdbLWK8WJ8,,,,,,,,,,,,,,
"Rte de Chippis 33A, 3966 Chalais, Switzerland",Rte de Chippis 33A,3966,Chalais,Valais,Switzerland,46.270143,7.515552,5,6,Valpool Sàrl,ChIJRcq1bUYhj0cRon6Ua_y4CTA,,1300,1300,1300,1300,1300,,,1730,1730,1730,1730,1730,
"Rte du Simplon 55, 3960 Sierre, Switzerland",Rte du Simplon 55,3960,Sierre,Valais,Switzerland,46.2972366,7.543891899999999,4.2,54,Avia Sierre - station-service avec shop,ChIJJSi0Gxofj0cR-Yw7Rw5KrYc,0800,0600,0600,0600,0600,0600,0700,2000,2100,2100,2100,2100,2100,2000
"Rte de Sierre 63, 3961 Grimentz, Switzerland",Rte de Sierre 63,3961,Grimentz,Valais,Switzerland,46.18341529999999,7.580624200000001,,,Nordic SPA,ChIJ98W4sZ8lj0cRCJ0WPX0ZfWQ,,0800,0800,0800,0800,0800,,,1700,1700,1700,1700,1700,
"Rte Cantonale 55, 1964 Conthey, Switzerland",Rte Cantonale 55,1964,Conthey,Valais,Switzerland,46.2249776,7.308312099999998,,,Whirlpools,ChIJvUYRSJPcjkcRyEeshgojvMs,,,,,,,,,,,,,,
"Av. du Grand-Saint-Bernard 28, 1920 Martigny, Switzerland",Av. du Grand-Saint-Bernard 28,1920,Martigny,Valais,Switzerland,46.09770899999999,7.069386999999998,4.8,4,13 Etoiles PAM Valais,ChIJLxIUvf_JjkcRezeI6Rqdr8k,,,,,,,,,,,,,,
"Av. du Pont de la Roua, 1957 Ardon, Switzerland",Av. du Pont de la Roua,1957,Ardon,Valais,Switzerland,46.2025678,7.264346000000002,4.2,173,Valaisanne pour la protection des animaux,ChIJR9pxsajEjkcRPgks941erqY,,,,1430,1430,1430,1430,,,,1700,1700,1700,1700
"Rue du Prado 5, 3963 Crans-Montana, Switzerland",Rue du Prado 5,3963,Crans-Montana,Valais,Switzerland,46.30560939999999,7.468023199999998,5,18,La beauté by Eléonore,ChIJ1S4JtvLhjkcRIeCAqJOfhf8,,0900,0900,0900,0900,0900,0900,,2000,2000,2000,2000,2000,1700
"Rte de Fleurs des Champs 17, 3963 Crans-Montana, Switzerland",Rte de Fleurs des Champs 17,3963,Crans-Montana,Valais,Switzerland,46.30830220000001,7.472731700000001,4.6,258,Art de Vivre - Boutique Hôtel et Spa,ChIJPZc8cS3gjkcRCRZvCJt4vdE,,,,,,,,,,,,,,
"Birsstrasse 200, 4052 Basel, Switzerland",Birsstrasse 200,4052,Basel,Basel-Stadt,Switzerland,47.547541,7.622080299999999,4.5,434,SPAR Supermarkt Basel Birsstrasse,ChIJ7XttVSq4kUcR4hmSmm1EtXQ,0900,0800,0800,0800,0800,0800,0800,1800,1900,1900,1900,1900,1900,1800
"Hegenheimerstrasse 93, 4055 Basel, Switzerland",Hegenheimerstrasse 93,4055,Basel,Basel-Stadt,Switzerland,47.5611626,7.569273799999998,4.2,188,SPAR Supermarkt Basel Hegenheimerstrasse,ChIJmeh9KAW5kUcReyFiP6xUWi0,0900,0800,0800,0800,0800,0800,0800,1800,1900,1900,1900,1900,1900,1900
"Längistrasse 14, 4133 Pratteln, Switzerland",Längistrasse 14,4133,Pratteln,Basel-Landschaft,Switzerland,47.5337367,7.7103624,4.2,225,SPAR Supermarkt Pratteln,ChIJ-ZUZu3C2kUcRq3WPc-8PPKI,0900,0700,0700,0700,0700,0700,0700,1700,2000,2000,2000,2000,2000,1800
"Mandachstrasse 54, 8155 Niederhasli, Switzerland",Mandachstrasse 54,8155,Niederhasli,Zürich,Switzerland,47.480011,8.4899673,4.1,157,SPAR,ChIJEY1U7I90kEcRGKcnR46dtg4,,0700,0700,0700,0700,0700,0700,,2100,2100,2100,2100,2100,2100
"Hauptstrasse 41, 4434 Hölstein, Switzerland",Hauptstrasse 41,4434,Hölstein,Basel-Landschaft,Switzerland,47.4258208,7.7702442,4.3,160,SPAR,ChIJvR_Ik1nLkUcR-zlKtBno6cc,0630,0530,0530,0530,0530,0530,0530,1700,1830,1830,1830,1830,1830,1800
"Konsumstrasse 87, 4466 Ormalingen, Switzerland",Konsumstrasse 87,4466,Ormalingen,Basel-Landschaft,Switzerland,47.469622,7.8775302,4.5,183,SPAR Supermarkt Ormalingen,ChIJd_F5dsM1kEcRDGE6wpoXbk0,0800,0700,0700,0700,0700,0700,0700,1700,1900,1900,1900,1900,1900,1900
"Dorfwisenstrasse 12, 8165 Schöfflisdorf, Switzerland",Dorfwisenstrasse 12,8165,Schöfflisdorf,Zürich,Switzerland,47.49933050000001,8.414233000000001,4.1,114,SPAR Supermarkt Schöfflisdorf,ChIJHahFn15ykEcREaVzk16t6Sw,,0700,0700,0700,0700,0700,0700,,2000,2000,2000,2000,2000,1900
"Breitistrasse 24, 8302 Kloten, Switzerland",Breitistrasse 24,8302,Kloten,Zürich,Switzerland,47.4477285,8.584228500000002,4.2,277,SPAR Supermarkt Kloten,ChIJsVz18fOfmkcRlWEnYU2VWY0,,0700,0700,0700,0700,0700,0700,,2100,2100,2100,2100,2100,2000
"Zentrumstrasse 6, 8717 Benken, Switzerland",Zentrumstrasse 6,8717,Benken,Zürich,Switzerland,47.19853669999999,9.004299,4.1,55,SPAR Supermarkt Benken,ChIJwRJTZOnOmkcRCAEVrXDrKI4,,0700,0700,0700,0700,0700,0700,,1900,1900,1900,1900,1900,1700
"Bahnhofstrasse 1, 8603 Schwerzenbach, Switzerland",Bahnhofstrasse 1,8603,Schwerzenbach,Zürich,Switzerland,47.381935,8.652603999999998,4.1,120,SPAR Supermarkt Schwerzenbach,ChIJm13Ok9yjmkcRmt0MljVsmok,,0700,0700,0700,0700,0700,0700,,2000,2000,2000,2000,2000,1800
"Landstrasse 8, 8112 Otelfingen, Switzerland",Landstrasse 8,8112,Otelfingen,Zürich,Switzerland,47.45911599999999,8.385539,4.3,225,SPAR Supermarkt Otelfingen,ChIJ72V2fa1ykEcR3lC9IV0t-RM,,0600,0600,0600,0600,0600,0700,,2100,2100,2100,2100,2100,2100
"Regensdorferstrasse 22, 8108 Dällikon, Switzerland",Regensdorferstrasse 22,8108,Dällikon,Zürich,Switzerland,47.4392647,8.4413089,4.2,223,SPAR Supermarkt Dällikon,ChIJAbE5orgMkEcRfMoPGyXdj54,,0700,0700,0700,0700,0700,0700,,2000,2000,2000,2000,2000,1900
"Dorfstrasse 15, 8906 Bonstetten, Switzerland",Dorfstrasse 15,8906,Bonstetten,Zürich,Switzerland,47.3148749,8.469689599999999,4.1,144,SPAR Supermarkt Bonstetten,ChIJAVeve_MIkEcRNMxmqY7Oeqg,,0700,0700,0700,0700,0700,0700,,2000,2000,2000,2000,2000,1900
"Mellingerstrasse 208, 5405 Baden, Switzerland",Mellingerstrasse 208,5405,Baden,Aargau,Switzerland,47.4518803,8.289778199999999,4.0,210,SPAR Supermarkt Baden-Dättwil mit TS Tamoil,ChIJHflkUkQTkEcRBb648NP7hZY,0700,0600,0600,0600,0600,0600,0600,2200,2200,2200,2200,2200,2200,2200
"Mühlestrasse 6, 5702 Niederlenz, Switzerland",Mühlestrasse 6,5702,Niederlenz,Aargau,Switzerland,47.40273029999999,8.175645,4.2,148,SPAR,ChIJ_4IrUOUVkEcRenhiRvwtQ6M,,0630,0630,0630,0630,0630,0800,,1900,1900,1900,1900,1900,1700
"Hausmatt 1, 6423 Seewen, Switzerland",Hausmatt 1,6423,Seewen,Uri,Switzerland,47.0278402,8.632084800000001,4.1,100,SPAR Supermarkt Seewen,ChIJibyi1B9OhUcRgDzNGuXmn7I,,0700,0700,0700,0700,0700,0700,,1900,1900,1900,1900,1900,1700
"HuSPAR Supermarktatt 2, 5405 Dättwil, Switzerland",HuSPAR Supermarktatt 2,5405,Dättwil,Aargau,Switzerland,47.4545166,8.2815641,3.6,127,SPAR Supermarkt Dättwil,ChIJfyuIBVoTkEcRk3dPyErQvlI,,0700,0700,0700,0700,0700,0700,,2000,2000,2000,2000,2000,1700
"Muhenstrasse 9, 5036 Oberentfelden, Switzerland",Muhenstrasse 9,5036,Oberentfelden,Aargau,Switzerland,47.35450849999999,8.047229800000002,4.2,244,SPAR,ChIJY3SEmHw7kEcRKZ0JVb8YiYA,0900,0700,0700,0700,0700,0700,0700,1700,1900,1900,1900,2000,1900,1900
"Bahnhofstrasse 6/8, 8932 Mettmenstetten, Switzerland",Bahnhofstrasse 6/8,8932,Mettmenstetten,Zürich,Switzerland,47.2437599,8.4616419,4.2,235,SPAR Supermarkt Mettmenstetten,ChIJwc3iWeEHkEcRMXI-ZNZOjaA,,0700,0700,0700,0700,0700,0700,,2100,2100,2100,2100,2100,2100
"Blümlisalpstrasse 1, 4562 Biberist, Switzerland",Blümlisalpstrasse 1,4562,Biberist,Solothurn,Switzerland,47.1871015,7.556110899999998,4.4,92,SPAR Supermarkt Biberist,ChIJ00Ot36wpjkcR6CZFBEMYVlo,,0700,0700,0700,0700,0700,0700,,1830,1830,1830,1830,2100,1800
"Kriegstettenstrasse 14, 4563 Gerlafingen, Switzerland",Kriegstettenstrasse 14,4563,Gerlafingen,Solothurn,Switzerland,47.1705435,7.574960799999999,4.2,309,SPAR Supermarkt,ChIJjZ-EYLIpjkcRX1Ip1uzuCmc,0600,0600,0600,0600,0600,0600,0600,2200,2200,2200,2200,2200,2200,2200
"Neue Str. 2, 4703 Kestenholz, Switzerland",Neue Str. 2,4703,Kestenholz,Solothurn,Switzerland,47.28186599999999,7.752662999999998,4.6,120,SPAR,ChIJMxnW77YskEcRqcsUo_fzBp4,,1400,1400,1400,1400,1400,1330,,1830,1830,1830,1830,1830,1600
"Spittelgasse 4, 3294 Büren an der Aare, Switzerland",Spittelgasse 4,3294,Büren,Bern,Switzerland,47.139239,7.372375,4.6,217,SPAR Supermarkt Büren a. A.,ChIJoVpnPIIhjkcR7i4E_uwjRv0,0800,0630,0630,0630,0630,0630,0630,1200,1900,1900,1900,1900,1900,1700
"Les Joncs, 1580 Avenches, Switzerland",Les Joncs,1580,Avenches,Vaud,Switzerland,46.899471,7.049696099999999,4.3,184,SPAR,ChIJM5lqPsJyjkcR9S3N7mAwQz4,0800,0800,0800,0800,0800,0800,0800,1900,1900,1900,1900,1900,1900,1900
"Restoroute de Lavaux Autoroute A9, 1091 Aran, Switzerland",Restoroute de Lavaux Autoroute A9,1091,Aran,Vaud,Switzerland,46.5050196,6.709657399999999,3.9,75,SPAR express Lavaux,ChIJSx_0bNQpjEcR3UOJUl0k_GI,0600,0600,0600,0600,0600,0600,0600,2200,2130,2130,2130,2130,2200,2200
"Rte des Toches 3, 1026 Echandens, Switzerland",Rte des Toches 3,1026,Echandens,Vaud,Switzerland,46.5348006,6.5469813,,,Spas Prestige,ChIJ83U5gncxjEcRwkPQ3WcdWJM,,,,,,,,,,,,,,
"Chem. de Budron H 2, 1052 Le Mont-sur-Lausanne, Switzerland",Chem. de Budron H 2,1052,Le,Vaud,Switzerland,46.57683599999999,6.634074999999998,5,6,One Spa Sàrl,ChIJ0ZgXkQwtjEcRwqST3J__5tk,,0800,1300,0800,1300,0800,0900,,1200,1700,1200,1700,1200,1200
"Murtenstrasse 13, 3210 Kerzers, Switzerland",Murtenstrasse 13,3210,Kerzers,Fribourg,Switzerland,46.9741653,7.1941618,4.2,104,SPAR Supermarkt Kerzers,ChIJYySwfgkUjkcRkEJ1ekpEGtk,,0630,0630,0630,0630,0630,0630,,1900,1900,1900,1900,1930,1600
"Rte Neuve 6, 1170 Aubonne, Switzerland",Rte Neuve 6,1170,Aubonne,Vaud,Switzerland,46.49521299999999,6.392386,4.4,7,Lac Léman Spa,ChIJASziF3lIjEcRme1fa2soztQ,,0900,0900,0900,0900,0900,,,1900,1900,1900,1900,1900,
"Rue Haldimand 6, 1003 Lausanne, Switzerland",Rue Haldimand 6,1003,Lausanne,Vaud,Switzerland,46.5227495,6.6312986,4.9,120,Institut Zen Attitude,ChIJi09N7jEujEcRKYBX2qeRzGQ,,0800,0800,0800,0800,0800,0900,,2100,2100,2100,2100,2100,1700
"Chem. des Lentillières 13E, 1023 Crissier, Switzerland",Chem. des Lentillières 13E,1023,Crissier,Vaud,Switzerland,46.550377,6.573875000000002,5,9,Baby Palace & Spa,ChIJ0990regxjEcR3hlMHOaBQ24,,0930,0930,0930,0930,0930,0930,,1930,1930,1930,1930,1930,1930
"Chem. du Raffort 1, 1032 Romanel-sur-Lausanne, Switzerland",Chem. du Raffort 1,1032,Romanel-sur-Lausanne,Vaud,Switzerland,46.5676083,6.604884800000001,1,1,37 Degrés SPA pour tous Sàrl,ChIJ1QtjOD0yjEcRgDis4MNenKs,,1000,1000,1000,1000,1000,0900,,1800,1800,1800,1800,1800,1500
"Centre i.Life City / Regus, Rte Suisse 8a, 1163 Etoy, Switzerland",Centre i.Life City / Regus,1163,Etoy,Vaud,Switzerland,46.47377640000001,6.4164085,,,Poséidon Spa Etoy,ChIJp3Wcso9HjEcRHe-EUDlbNF4,,,1000,1000,1000,1000,1000,,,1800,1800,1800,1800,1800
"Rue de Bourg, au 33/1er étage, 1003 Lausanne, Switzerland",Rue de Bourg,1003,Lausanne,Vaud,Switzerland,46.5201839,6.635703799999998,4.5,37,Clarins Boutique & Skin Spa Lausanne,ChIJi5jMdzQujEcRKkVSPRAvl3M,,1000,1000,1000,1000,1000,0900,,1900,1900,1900,1900,1900,1700
"Chem. de la Salette 4, 1023 Crissier, Switzerland",Chem. de la Salette 4,1023,Crissier,Vaud,Switzerland,46.5532639,6.582006300000001,,,Wellness Paradise,ChIJaxQS9HYxjEcRArYIhQvB9KA,,0800,0800,0800,0800,0800,,,1800,1800,1800,1800,1800,
"Rte de Flonzaley 12, 1070 Puidoux, Switzerland",Rte de Flonzaley 12,1070,Puidoux,Vaud,Switzerland,46.4926396,6.763560299999999,,,Whirlpools,ChIJ__8Dq0MojEcR4ThqqA20JTE,,0900,0900,0900,0900,0900,0900,,1700,1700,1700,1700,1700,1700
"Chem. du Marais 4, 1670 Ursy, Switzerland",Chem. du Marais 4,1670,Ursy,Vaud,Switzerland,46.6280696,6.842828899999999,4.4,20,"Dspas.ch - Spas avec pompe à chaleur, saunas, hammams",ChIJEwI9JPB_jkcRDFkSFrCv_7c,,1330,1330,1330,1330,0800,,,1700,1700,1700,1700,1130,
"Place de la Gare 1, 1009 Pully, Switzerland",Place de la Gare 1,1009,Pully,Vaud,Switzerland,46.5107192,6.6597523,4.7,69,The Charm of the Orient,ChIJTzAEKqovjEcRALixBG4whAM,1030,0930,0930,0930,0930,0930,0930,1900,2000,2000,2000,2000,2000,2000
"Rte de Champ-Colin 2C, 1260 Nyon, Switzerland",Rte de Champ-Colin 2C,1260,Nyon,Vaud,Switzerland,46.3838201,6.2185055,4.2,64,Astro Pools S.A.,ChIJ_8QRvh1wjEcRFVPsLR7NmWE,,0900,0900,0900,0900,0900,0900,,1800,1800,1800,1800,1800,1700
"Hochstrasse 122, 8200 Schaffhausen, Switzerland",Hochstrasse 122,8200,Schaffhausen,Schaffhausen,Switzerland,47.7072909,8.6376955,4.2,68,SPAR express Schaffhausen-Hochstr.,ChIJTQcznXx_kEcRWa0Tc63_a1Y,0700,0600,0600,0600,0600,0600,0600,2200,2200,2200,2200,2200,2300,2300
"Zur Stahlgiesserei 14a, 8200 Schaffhausen, Switzerland",Zur Stahlgiesserei 14a,8200,Schaffhausen,Schaffhausen,Switzerland,47.7052584,8.6308702,3.3,33,SPAR Supermarkt SH Stahlgiesserei,ChIJ9fLjFKB_kEcRErgaGZg6tB0,,0630,0630,0630,0630,0630,0630,,2000,2000,2000,2000,2000,1900
"Schaffhauserstrasse 239, 8057 Zürich, Switzerland",Schaffhauserstrasse 239,8057,Zürich,Zürich,Switzerland,47.4032176,8.5469741,4.1,145,SPAR Oerlikon Corrado Imbimbo's Frischmärkte,ChIJV2kfW34KkEcRxMBrKw77TPs,,0700,0700,0700,0700,0700,0700,,2100,2100,2100,2100,2100,2100
"Regensbergstrasse 300, 8050 Zürich, Switzerland",Regensbergstrasse 300,8050,Zürich,Zürich,Switzerland,47.4115648,8.5279289,3.9,165,SPAR,ChIJSdpvmPQKkEcRVBkh0ZlVz2U,,0600,0600,0600,0600,0600,0600,,2100,2100,2100,2100,2100,2000
"Dolderstrasse 5, 8032 Zürich, Switzerland",Dolderstrasse 5,8032,Zürich,Zürich,Switzerland,47.3703237,8.556849999999999,4.1,101,SPAR,ChIJByNz1bOgmkcRfF5v1v-wqvA,,0700,0700,0700,0700,0700,0700,,2100,2100,2100,2100,2100,1900
"Hardturmstrasse 126, 8005 Zürich, Switzerland",Hardturmstrasse 126,8005,Zürich,Zürich,Switzerland,47.393554,8.5131344,3.6,73,SPAR express,ChIJPYPcg-ULkEcR3fwzpotDONM,,0700,0700,0700,0700,0700,0900,,2000,2000,2000,2000,2000,1800
"Forchstrasse 140, 8032 Zürich, Switzerland",Forchstrasse 140,8032,Zürich,Zürich,Switzerland,47.3603586,8.563469900000001,4.0,45,SPAR Supermarkt Zürich Forchstrasse,ChIJyW4V-zWnmkcRqIhXwo6RgoQ,,0700,0700,0700,0700,0700,0800,,2000,2000,2000,2000,2000,1900
"Hottingerstrasse 2, 8032 Zürich, Switzerland",Hottingerstrasse 2,8032,Zürich,Zürich,Switzerland,47.3703542,8.549406499999998,4.0,89,SPAR express Zürich Schauspielhaus,ChIJy90vI6ygmkcRvGcuE-1MqQ4,,0600,0600,0600,0600,0600,0600,,2200,2200,2200,2200,2200,2200
"Toblerpl. 5, 8044 Zürich, Switzerland",Toblerpl. 5,8044,Zürich,Zürich,Switzerland,47.37911,8.5597862,4.1,96,SPAR express Zürich Toblerplatz,ChIJSxxYmbugmkcRgGXMY2ke_rc,,0630,0630,0630,0630,0630,0630,,2100,2100,2100,2100,2100,2100
"Freilagerstrasse 51, 8047 Zürich, Switzerland",Freilagerstrasse 51,8047,Zürich,Zürich,Switzerland,47.3800427,8.4896586,4.2,208,SPAR,ChIJjRPzD9ILkEcRJ1OiJpXlD48,,0700,0700,0700,0700,0700,0700,,2100,2100,2100,2100,2100,2100
"Neunbrunnenstrasse 40, 8050 Zürich, Switzerland",Neunbrunnenstrasse 40,8050,Zürich,Zürich,Switzerland,47.4173318,8.5405674,4.9,75,Spar Express Neunbrunnenstrasse,ChIJSydOGBQLkEcRX7UVCJHAeVg,,0600,0600,0600,0600,0600,0700,,2200,2200,2200,2200,2200,2200
"Spinnereipl. 2, 8041 Zürich, Switzerland",Spinnereipl. 2,8041,Zürich,Zürich,Switzerland,47.3383408,8.5202649,4.3,58,SPAR Supermarkt Zürich,ChIJF8saEAMJkEcRypNFI8jXOXc,,0700,0700,0700,0700,0700,0700,,2200,2200,2200,2200,2200,2200
"Mythenquai 349b, 8038 Zürich, Switzerland",Mythenquai 349b,8038,Zürich,Zürich,Switzerland,47.3459131,8.534711,5.0,8,Spar Express Mythenquai,ChIJp54goXKnmkcRIle6M6u3BqU,0600,0600,0600,0600,0600,0600,0600,0000,0000,0000,0000,0000,0000,0000
"Aarauerstrasse 21, 5603 Staufen, Switzerland",Aarauerstrasse 21,5603,Staufen,Aargau,Switzerland,47.3869,8.169671,4.1,248,EUROSPAR Supermarkt Staufen,ChIJjdRXmgUWkEcRMe4gYZhT1HE,,0800,0800,0800,0800,0800,0800,,1900,1900,1900,1900,1900,1800
"Bahnhofstrasse 92, 5430 Wettingen, Switzerland",Bahnhofstrasse 92,5430,Wettingen,Aargau,Switzerland,47.46442400000001,8.328797999999999,4.1,111,SPAR Supermarkt Wettingen,ChIJR3dYRSptkEcRg1AqU6l3A0I,,0700,0700,0700,0700,0700,0700,,2100,2100,2100,2100,2100,2000
"Fislisbacherstrasse 4, 5406 Baden, Switzerland",Fislisbacherstrasse 4,5406,Baden,Aargau,Switzerland,47.43854199999999,8.271346,4.3,101,SPAR Supermarkt Baden-Rütihof,ChIJLYXoY2ITkEcRNiOm3xi3G58,,0700,0700,0700,0700,0700,0700,,2000,2000,2000,2000,2000,1900
"Wohlerstrasse 55, 5620 Bremgarten, Switzerland",Wohlerstrasse 55,5620,Bremgarten,Aargau,Switzerland,47.3551118,8.3252465,4.7,30,SPAR express Bremgarten,ChIJ7Q3Xv8IRkEcRiYBHilMJTaQ,0600,0500,0500,0500,0500,0500,0600,2300,2300,2300,2300,2300,2300,2300
"Bahnhofstrasse 82, 8957 Spreitenbach, Switzerland",Bahnhofstrasse 82,8957,Spreitenbach,Zürich,Switzerland,47.42548799999999,8.3620469,4.0,218,SPAR Supermarkt Spreitenbach,ChIJ2W0xOYISkEcRO1lvEVpHP2s,,0700,0700,0700,0700,0700,0700,,2100,2100,2100,2100,2100,2000
"Altmattweg 1, 4802 Strengelbach, Switzerland",Altmattweg 1,4802,Strengelbach,Aargau,Switzerland,47.2804622,7.9301631,4.2,151,SPAR,ChIJE3cxvWQvkEcRcL2jBLMpWA0,,0700,0700,0700,0700,0700,0700,,1900,1900,1900,1900,1900,1800
"Bahnhofstrasse 17, 5300 Turgi, Switzerland",Bahnhofstrasse 17,5300,Turgi,Aargau,Switzerland,47.4944634,8.252662899999999,4.3,210,SPAR Supermarkt Turgi,ChIJywaBUBBrkEcRgI0HJjEUbM8,,0700,0700,0700,0700,0700,0700,,2000,2000,2000,2000,2000,1900
"Holzikerstrasse 8, 5040 Schöftland, Switzerland",Holzikerstrasse 8,5040,Schöftland,Aargau,Switzerland,47.3119139,8.049971599999997,4.3,152,SPAR,ChIJUf_G91ojkEcRy9_wZlTFKUM,,0630,0630,0630,0630,0630,0630,,2000,2000,2000,2000,2000,1800
"Galliweg, 4852 Rothrist, Switzerland",Galliweg,4852,Rothrist,Aargau,Switzerland,47.3027594,7.877554699999999,4.3,122,SPAR Supermarkt Rothrist,ChIJ1x1BqVsukEcRVIFo-WUbU6g,,0700,0700,0700,0700,0700,0730,,1900,1900,1900,1900,1900,1800
"Regensdorferstrasse 2, 8104 Weiningen, Switzerland",Regensdorferstrasse 2,8104,Weiningen,Zürich,Switzerland,47.419928,8.434778,4.3,130,SPAR Supermarkt Weiningen,ChIJsbQzS_MMkEcRUydSS4c9xwA,,0700,0700,0700,0700,0700,0700,,2000,2000,2000,2000,2000,1900
"Badenerstrasse 104, 8952 Schlieren, Switzerland",Badenerstrasse 104,8952,Schlieren,Zürich,Switzerland,47.3976295,8.430797199999999,4.1,52,SPAR,ChIJSQ7FarANkEcRT5b4QxDirUM,,0700,0700,0700,0700,0700,0700,,2000,2000,2000,2000,2000,1800
"Bachstrasse 11, 8902 Urdorf, Switzerland",Bachstrasse 11,8902,Urdorf,Zürich,Switzerland,47.381913,8.423735599999999,4.3,168,SPAR,ChIJ4URWvBgMkEcRkBRAG77pLIE,,0700,0700,0700,0700,0700,0700,,2000,2000,2000,2000,2000,1900
"Pumpwerkstrasse 56, 8105 Regensdorf, Switzerland",Pumpwerkstrasse 56,8105,Regensdorf,Zürich,Switzerland,47.4453521,8.464095499999999,4.2,291,SPAR,ChIJ2TWFZ6kMkEcR2y1Kg6PeByk,,0600,0600,0600,0600,0600,0600,,2100,2100,2100,2100,2100,2100
"Oltnerstrasse 62, 5012 Schönenwerd, Switzerland",Oltnerstrasse 62,5012,Schönenwerd,Solothurn,Switzerland,47.36885789999999,8.0004329,4.0,50,SPAR express Schönenwerd,ChIJTwHg91Y6kEcROdPia3ljbVo,0600,0530,0530,0530,0530,0530,0600,2200,2200,2200,2200,2200,2200,2200
"Schmiedgasse 10, 6460 Altdorf, Switzerland",Schmiedgasse 10,6460,Altdorf,Uri,Switzerland,46.8809318,8.645529699999999,4.7,15,SPAR Supermarkt Altdorf,ChIJ9VAoToRDhUcRcCHERMPdTVs,,0730,0730,0730,0730,0730,0730,,1830,1830,1830,1830,1830,1600
"Oberibergerstrasse 5, 8842 Unteriberg, Switzerland",Oberibergerstrasse 5,8842,Unteriberg,Zürich,Switzerland,47.0584719,8.800525300000002,4.5,152,SPAR Supermarkt Unteriberg,ChIJtY24sEVKhUcRCh_eqFFdhDE,,0700,0700,0700,0700,0700,0700,,1930,1930,1930,1930,1930,1800
"Bahnhofstrasse 3, 6415 Arth, Switzerland",Bahnhofstrasse 3,6415,Arth,Uri,Switzerland,47.06452269999999,8.5235764,4.4,110,SPAR Supermarkt Arth,ChIJSaQUwBdUhUcRBMq-Z9t3mpY,,0700,0700,0700,0700,0700,0700,,1900,1900,1900,1900,1900,1500
"Hauptstrasse 97, 6436 Muotathal, Switzerland",Hauptstrasse 97,6436,Muotathal,Uri,Switzerland,46.9725644,8.7668552,4.5,78,SPAR Supermarkt Muotathal,ChIJncl_uWZIhUcR_2afy5Ki8TA,,1300,1300,1300,1300,1300,0700,,1830,1830,1830,1830,1830,1600
"Pilgerweg 45, 8803 Rüschlikon, Switzerland",Pilgerweg 45,8803,Rüschlikon,Zürich,Switzerland,47.3062584,8.5562832,4.3,67,SPAR,ChIJ0wW2h8enmkcRSwqCT_tRZtg,,0700,0700,0700,0700,0700,0700,,2000,2000,2000,2000,2000,1800
"Robert-Durrerstrasse 22, 6370 Stans, Switzerland",Robert-Durrerstrasse 22,6370,Stans,Nidwalden,Switzerland,46.96040620000001,8.3649572,4.5,122,SPAR Supermarkt Stans,ChIJU2Tf0g73j0cRClAVBmVQsWo,,0700,0700,0700,0700,0700,0700,,1900,1900,1900,1900,1900,1700
"Luzernerstrasse 101, 6333 Hünenberg, Switzerland",Luzernerstrasse 101,6333,Hünenberg,Zug,Switzerland,47.1734741,8.449087899999999,4.3,107,SPAR Grocery Store Hünenberg,ChIJXalUp1kAkEcRbRvDvMJ3De0,,0700,0700,0700,0700,0700,0700,,1900,1900,1900,1900,1900,1700
"Bahnhofstrasse 10, 6300 Zug, Switzerland",Bahnhofstrasse 10,6300,Zug,Zug,Switzerland,47.1685704,8.515969900000002,4.0,139,Spar Supermarkt,ChIJPZasDPeqmkcR8-VKK3J0-1o,,0700,0700,0700,0700,0700,0800,,1900,1900,1900,2000,1900,1700
"Buonaserstrasse 17, 6343 Risch-Rotkreuz, Switzerland",Buonaserstrasse 17,6343,Risch-Rotkreuz,Zug,Switzerland,47.1411954,8.430786699999999,4.1,122,SPAR,ChIJJxlSgCkAkEcRXUdq4iTUNZk,,0600,0600,0600,0600,0600,0600,,1900,1900,1900,1900,2000,1700
"Bahnhofstrasse 42, 8305 Dietlikon, Switzerland",Bahnhofstrasse 42,8305,Dietlikon,Zürich,Switzerland,47.42318119999999,8.6186765,4.3,99,SPAR Supermarkt Dietlikon,ChIJJc3UKcahmkcRwjCGcQV3GGs,,0700,0700,0700,0700,0700,0700,,2000,2000,2000,2000,2000,2000
"Leutschenstrasse 3/5, 8807 Freienbach, Switzerland",Leutschenstrasse 3/5,8807,Freienbach,Zürich,Switzerland,47.2064205,8.754300100000002,4.2,116,SPAR Supermarkt Freienbach,ChIJWZVhPmmxmkcRF2Zc267JJmA,,0700,0700,0700,0700,0700,0700,,1930,1930,1930,1930,1930,1800
"Beckenriederstrasse 5, 6374 Buochs, Switzerland",Beckenriederstrasse 5,6374,Buochs,Nidwalden,Switzerland,46.97395299999999,8.4214793,4.4,167,SPAR Supermarkt Buochs,ChIJH3uPQP33j0cRLlsUT2Mi3v0,0800,0730,0730,0730,0730,0730,0700,1300,1900,1900,1900,1900,1900,1700
"Dorfstrasse 3, 8834 Schindellegi, Switzerland",Dorfstrasse 3,8834,Schindellegi,Zürich,Switzerland,47.1743899,8.7113456,4.2,93,SPAR Supermarkt Schindellegi,ChIJa9Siy0eymkcRUGMfNzcoZVg,,0700,0700,0700,0700,0700,0700,,1930,1930,1930,1930,1930,1800
"Rue du Seyon, Rue du Trésor 1a/5b Et, 2000 Neuchâtel, Switzerland",Rue du Seyon,2000,Neuchâtel,Neuchâtel,Switzerland,46.9918094,6.9287284,4.6,49,Serenityblue SPA Neuchatel,ChIJZcpMqxsKjkcR0R3Zmh0cEhM,,1300,0900,0900,0900,0900,0900,,1900,1900,1900,1900,1900,1800
"Rue des Epancheurs 9, 2000 Neuchâtel, Switzerland",Rue des Epancheurs 9,2000,Neuchâtel,Neuchâtel,Switzerland,46.98992330000001,6.9298397,,,Sukho Spa et massage Agréé ASCA Neuchâtel,ChIJT0H603oLjkcRWKcHJj6tXEg,,0800,0800,0800,0800,0800,0800,,1900,1900,1900,2000,1900,1800
"Rue des Parcs 84, 2000 Neuchâtel, Switzerland",Rue des Parcs 84,2000,Neuchâtel,Neuchâtel,Switzerland,46.99174300000001,6.916491000000001,5,2,Aux Mains du bien-être,ChIJLTQSNzYLjkcRZhYFXKEpTDE,,0900,0900,0900,0900,0900,0900,,2000,2000,2000,2000,2000,1800
"Rue des Berthoudes 16, 2000 Neuchâtel, Switzerland",Rue des Berthoudes 16,2000,Neuchâtel,Neuchâtel,Switzerland,47.0067387,6.9600303,5,3,Day Spa Yoenai,ChIJ2WQOSYEJjkcRGzVi5oA7Xwo,,,,,,,,,,,,,,
"Rue des Granges 4, 2000 Neuchâtel, Switzerland",Rue des Granges 4,2000,Neuchâtel,Neuchâtel,Switzerland,46.9877622,6.8888852,5,76,OLISTIK NEUCHÂTEL - Agréé ASCA / RME,ChIJXd24ysfhjUcRobHpavTFwuU,,1400,0900,0900,0900,0900,1000,,1900,1900,1900,2000,1900,1800
"Rue du Coq-d'Inde 20, 2000 Neuchâtel, Switzerland",Rue du Coq-d'Inde 20,2000,Neuchâtel,Neuchâtel,Switzerland,46.9910881,6.9275351,5,18,Comme sur un Nuage,ChIJw-6V7hEKjkcRtXBTFbi91AI,,,0930,,1000,1015,0930,,,1730,,1830,1800,1500
"Rue Saint-Maurice 7, 2000 Neuchâtel, Switzerland",Rue Saint-Maurice 7,2000,Neuchâtel,Neuchâtel,Switzerland,46.99085869999999,6.930694099999998,4,1,Lalita massage,ChIJq6o6zRMKjkcR7AT7h2p-i3Y,,,,,,,,,,,,,,
"Rue de l'Hôpital 16, 2000 Neuchâtel, Switzerland",Rue de l'Hôpital 16,2000,Neuchâtel,Neuchâtel,Switzerland,46.99195739999999,6.929675800000001,5,3,Cabinet Alterveda,ChIJtTqNyX0LjkcRywVdWj4Zlmk,,,,,,,0800,,,,,,,1800
"Cottendart 9, 2013 Colombier, Switzerland",Cottendart 9,2013,Colombier,Neuchâtel,Switzerland,46.97277,6.851112,4.2,74,Société protectrice des animaux Neuchâtel et environs SPAN refuge,ChIJT_VUQEDhjUcRa77NExQzl6Y,,,,,,,,,,,,,,
"Quai Jeanrenaud 5, 2000 Neuchâtel, Switzerland",Quai Jeanrenaud 5,2000,Neuchâtel,Neuchâtel,Switzerland,46.9801606,6.9000172,5,9,Sauna finnika,ChIJ3eNuvSvhjUcRewhnO8E4MYM,,,,,,,,,,,,,,
"Fbg de l'Hôpital 3, 2000 Neuchâtel, Switzerland",Fbg de l'Hôpital 3,2000,Neuchâtel,Neuchâtel,Switzerland,46.99222259999999,6.931366199999999,5,2,DETENTE MASSAGE - Massage classique Neuchâtel,ChIJi14F5JsLjkcRZYShfAtOSEU,1400,0900,0900,0900,0900,0900,0830,1800,2000,2000,2000,2000,2000,1800
"Esp. du Mont-Blanc 1, 2000 Neuchâtel, Switzerland",Esp. du Mont-Blanc 1,2000,Neuchâtel,Neuchâtel,Switzerland,46.98916669999999,6.9288889,4.4,1175,Beau-Rivage Neuchâtel,ChIJ0U3ONRIKjkcRyXX5rULK_Bs,0000,,,,,,,,,,,,,
"Rue du Trésor 11, 2000 Neuchâtel, Switzerland",Rue du Trésor 11,2000,Neuchâtel,Neuchâtel,Switzerland,46.9910338,6.9287996,5,8,Soli,ChIJ84LPp6MLjkcRb704o_aj_D0,,0915,0915,,0915,0915,,,1800,1415,,1230,1415,
"Coop Maladiére Centre, Rue de la Pierre-à-Mazel 10, 2000 Neuchâtel, Switzerland",Coop Maladiére Centre,2000,Neuchâtel,Neuchâtel,Switzerland,46.9950589,6.9438657,3.9,35,Institut de beauté Bodyminute / Nailminute,ChIJD7xKrf0LjkcRxX0pDARuagQ,,0830,0830,0830,0830,0830,0830,,1900,1900,1900,2000,1900,1800
"Chem. des Grillons 4, 2000 Neuchâtel, Switzerland",Chem. des Grillons 4,2000,Neuchâtel,Neuchâtel,Switzerland,46.9937076,6.9192658,,,Germaine Nicoud,ChIJUWUY8kkLjkcRi_AXWEGqV7U,,,,,,,,,,,,,,
"Chem. de Chantemerle 5, 2000 Neuchâtel, Switzerland",Chem. de Chantemerle 5,2000,Neuchâtel,Neuchâtel,Switzerland,47.00030870000001,6.9471932,,,Thérapie & Mouvement,ChIJcwaEwugLjkcRKtiYaSiR_-U,,,,,,,,,,,,,,
"Rue Jaquet-Droz 2, 2000 Neuchâtel, Switzerland",Rue Jaquet-Droz 2,2000,Neuchâtel,Neuchâtel,Switzerland,46.9975152,6.9480589,,,Natura Source,ChIJq8rjqyULjkcRktFeJsyayQc,,,1400,1400,1400,1400,1000,,,1800,1800,1800,1800,1430
"Rue des Terreaux 2, 2000 Neuchâtel, Switzerland",Rue des Terreaux 2,2000,Neuchâtel,Neuchâtel,Switzerland,46.9921737,6.9309496,4.9,11,Santé est Beauté,ChIJF3kzGREKjkcR60_XoY11wdc,,1000,1000,1000,1000,1000,,,1830,1830,1830,1830,1830,
"Pl. Pury 9, 2000 Neuchâtel, Switzerland",Pl. Pury 9,2000,Neuchâtel,Neuchâtel,Switzerland,46.9898582,6.9297749,5,3,Statera Institut,ChIJ__9P1xMKjkcRmrYmi_CUcb0,,0900,0900,0900,0900,0900,,,1900,1900,1900,1900,1900,
"Via G.B. Pioda 14, 6900 Lugano, Switzerland",Via G.B. Pioda 14,6900,Lugano,Ticino,Switzerland,46.0078194,8.954511799999999,4.2,91,SPAR express,ChIJqTCm7osthEcRSZngHqWV3pg,,0700,0700,0700,0700,0700,0800,,1900,1900,1900,1900,1900,1700
"Langgasse 41, 9008 St. Gallen, Switzerland",Langgasse 41,9008,St.,Zürich,Switzerland,47.43694199999999,9.3878062,4.1,148,SPAR express St. Gallen,ChIJb9JKDF0em0cRAsc_eF6P8I8,0700,0500,0500,0500,0500,0500,0500,2100,2200,2200,2200,2200,2200,2200
"Wolfganghof 2, 9014 St. Gallen, Switzerland",Wolfganghof 2,9014,St.,Zürich,Switzerland,47.4028387,9.3367126,4.2,85,SPAR Supermarkt Wolfganghof,ChIJ-_C2_x_gmkcRNDBXIGkZovQ,,0700,0700,0700,0700,0700,0700,,1900,1900,1900,2000,1900,1700
"Schlachthofstrasse 12, 9015 St. Gallen, Switzerland",Schlachthofstrasse 12,9015,St.,Zürich,Switzerland,47.4075747,9.287091499999997,3.9,129,SPAR Handels AG,ChIJp1YSN_XgmkcRE55CNWby3XA,,0700,0700,0700,0700,0700,,,1700,1700,1700,1700,1700,
"Fürstenlandstrasse 175, 9014 St. Gallen, Switzerland",Fürstenlandstrasse 175,9014,St.,Zürich,Switzerland,47.409647,9.333310299999999,4,7,SPAR express | Tamoil Tankstelle,ChIJZ7_X3zbhmkcRYkaHW7TKQbQ,0700,0600,0600,0600,0600,0600,0600,2100,2200,2200,2200,2200,2200,2200
"Ikarusstrasse 2, 9015 St. Gallen, Switzerland",Ikarusstrasse 2,9015,St.,Zürich,Switzerland,47.4040616,9.3044925,,,AVIA SPAR Tankstelle express Winklen,ChIJI0ahgevhmkcRQ69uEVs4I-Q,,,,,,,,,,,,,,
"Iseliguet 2, 8750 Glarus, Switzerland",Iseliguet 2,8750,Glarus,Zürich,Switzerland,47.05039719999999,9.059144199999999,4.3,296,SPAR Supermarkt Glarus,ChIJ1RfucacthUcRG49hAvVZZhE,0900,0900,0900,0900,0900,0900,0900,2100,2100,2100,2100,2100,2100,2100
"Gieselbach 2218, 9642 Ebnat-Kappel, Switzerland",Gieselbach 2218,2218,Ebnat-Kappel,Neuchâtel,Switzerland,47.2584403,9.141262400000002,5.0,1,SPAR express Ebnat-Kappel,ChIJ9emBRsjbmkcRhoEFrccmwjs,0700,0600,0600,0600,0600,0600,0600,2100,2200,2200,2200,2200,2200,2200
"Stockerstrasse 46, 8002 Zürich, Switzerland",Stockerstrasse 46,8002,Zürich,Zürich,Switzerland,47.3682053,8.5346155,4.9,68,Jura Store Zürich,ChIJ2fs1GQIKkEcRkJ3tl5_ZW-Y,,0900,0900,0900,0900,0900,0900,,1800,1800,1800,1800,1800,1600
"Lindenhof 7, 6060 Sarnen, Switzerland",Lindenhof 7,6060,Sarnen,Obwalden,Switzerland,46.897307,8.247574,4.1,87,SPAR Supermarkt Sarnen,ChIJM4GoLkjyj0cR3lR01B5kXBU,,0700,0700,0700,0700,0700,0700,,1900,1900,1900,1900,1900,1700
"Dorfstrasse 23, 6133 Hergiswil bei Willisau, Switzerland",Dorfstrasse 23,6133,Hergiswil,Luzern,Switzerland,47.0851134,7.956789499999998,4.7,60,SPAR,ChIJoQ0aJebbj0cR_PZRdDV6-iI,,,,,,,,,,,,,,
"Seetalstrasse 98, 6032 Emmen, Switzerland",Seetalstrasse 98,6032,Emmen,Luzern,Switzerland,47.0767581,8.3008277,4.0,136,SPAR Supermarkt Emmen,ChIJteNZUIT8j0cR7IvG6udL0-w,,0630,0630,0630,0630,0630,0700,,1900,1900,1900,1900,1900,1700
"Unterdorfstrasse, 6033 Buchrain, Switzerland",Unterdorfstrasse,6033,Buchrain,Luzern,Switzerland,47.0958116,8.349726099999998,4.3,47,SPAR,ChIJ9cm-nzr8j0cR2opu2n68ZYk,,0730,0730,0730,0730,0730,0730,,1830,1830,1830,1830,1830,1600
"Guglern 16, 6018 Buttisholz, Switzerland",Guglern 16,6018,Buttisholz,Luzern,Switzerland,47.107868,8.0842287,4.4,174,SPAR Supermarkt Buttisholz,ChIJB8uM0J7gj0cREgwjeReDt9k,,0700,0700,0700,0700,0700,0700,,1900,1900,1900,1900,2000,1700
"Kantonsstrasse 11, 6207 Nottwil, Switzerland",Kantonsstrasse 11,6207,Nottwil,Luzern,Switzerland,47.1359855,8.1348201,4.4,93,SPAR Supermarkt Nottwil,ChIJVVVVVanhj0cRadOvgzWTRZ0,,0700,0700,0700,0700,0700,0700,,1900,1900,1900,1900,2000,1700
"Ohmstalerstrasse 8, 6247 Schötz, Switzerland",Ohmstalerstrasse 8,6247,Schötz,Luzern,Switzerland,47.1702749,7.987814200000001,4.3,91,SPAR Supermarkt Schötz,ChIJpS9FRjjZj0cR-fl6zRT6Res,,0600,0600,0600,0600,0600,0700,,1830,1830,1830,1830,1830,1500
"Sonnhaldenstrasse 4, 6122 Menznau, Switzerland",Sonnhaldenstrasse 4,6122,Menznau,Luzern,Switzerland,47.0840843,8.040959599999999,4.6,39,SPAR,ChIJGTvDRAndj0cRDyXB657c6E4,,0700,0700,0700,0700,0700,0700,,1830,1830,1830,1830,1830,1600
"Luzernstrasse 35, 6208 Oberkirch, Switzerland",Luzernstrasse 35,6208,Oberkirch,Luzern,Switzerland,47.1569377,8.115650999999998,4.2,82,SPAR Supermarkt Oberkirch,ChIJkwaYUh_gj0cRn1KFO9wcQdg,,0600,0600,0600,0600,0600,0600,,1900,1900,1900,1900,1900,1700
"Marktstrasse 32, 6060 Sarnen, Switzerland",Marktstrasse 32,6060,Sarnen,Obwalden,Switzerland,46.8974718,8.2510819,4.3,503,Coop Supermarkt Sarnen,ChIJRVjqAEryj0cRtDG_UJV7y2I,,0800,0800,0800,0800,0800,0730,,2000,2000,2000,2000,2000,1800
"Lyssstrasse 5, 3054 Schüpfen, Switzerland",Lyssstrasse 5,3054,Schüpfen,Bern,Switzerland,47.043039,7.380613000000001,4.1,90,SPAR Supermarkt Schüpfen,ChIJo0fgR7o8jkcRnpasgBcKTp4,,0700,0700,0700,0700,0700,0700,,1830,1830,1830,1830,1830,1700
"Gurnigelstrasse 38, 3627 Heimberg, Switzerland",Gurnigelstrasse 38,3627,Heimberg,Bern,Switzerland,46.7811802,7.603870300000001,4.1,367,Spar Supermarket,ChIJgWMDBcxMjkcRs0xfiBocsH0,0600,0600,0600,0600,0600,0600,0600,2200,2200,2200,2200,2200,2200,2200
"Surseestrasse 28, 6206 Neuenkirch, Switzerland",Surseestrasse 28,6206,Neuenkirch,Luzern,Switzerland,47.10356619999999,8.2016176,4.2,74,SPAR,ChIJ7b4qDbnjj0cR-NfAseUzmUc,,0700,0700,0700,0700,0700,0700,,1900,1900,1900,1900,2000,1700
"Luzernstrasse 33, 6280 Hochdorf, Switzerland",Luzernstrasse 33,6280,Hochdorf,Luzern,Switzerland,47.1648951,8.300357,4.2,209,SPAR,ChIJaQX_xbkCkEcRDeUV3yi5_Qs,0600,0600,0600,0600,0600,0600,0600,2200,2200,2200,2200,2200,2200,2200
"Oberer Steisteg, 6430 Schwyz, Switzerland",Oberer Steisteg,6430,Schwyz,Uri,Switzerland,47.0204444,8.6509962,,,SPAR Supermarkt Schwyz,ChIJsaxCID9OhUcRpoK0VCYxtaM,,,,,,,,,,,,,,
"Unteres Ziel 1, 9050 Appenzell, Switzerland",Unteres Ziel 1,9050,Appenzell,Zürich,Switzerland,47.3349361,9.408424600000002,4.8,48,SPAR Supermarkt Appenzell,ChIJnZqW3X4hm0cRW0YemMJutLk,,0800,0800,0800,0800,0800,0800,,1830,1830,1830,1830,2000,1600
"Dorf 36, 9044 Wald, Switzerland",Dorf 36,9044,Wald,Zürich,Switzerland,47.415943,9.491162999999998,4.6,54,SPAR Supermarkt Wald,ChIJS1Nz66kZm0cRtuiDwje4_LE,,1330,1330,1330,1330,1330,0700,,1830,1830,1830,1830,1830,1600
"Hauptstrasse 2, 9053 Teufen, Switzerland",Hauptstrasse 2,9053,Teufen,Zürich,Switzerland,47.390957,9.385693,4.5,133,SPAR Supermarkt Teufen,ChIJkUr0a3cfm0cRCgM2fUSO0Y0,,0730,0730,0730,0730,0730,0730,,1900,1900,1900,1900,2000,1700
"Hauptstrasse 9, 9042 Speicher, Switzerland",Hauptstrasse 9,9042,Speicher,Zürich,Switzerland,47.4092119,9.444148199999999,4.2,117,SPAR Supermarkt,ChIJsShOqtYYm0cRAjBtbbwCv1Y,,0730,0730,0730,0730,0730,0730,,1830,1830,1830,1830,1830,1600
"Speicherstrasse 10, 9043 Trogen, Switzerland",Speicherstrasse 10,9043,Trogen,Zürich,Switzerland,47.40765580000001,9.4612781,3.8,38,SPAR mini Trogen,ChIJo590m6UZm0cR47PQaPES2eM,,1400,1400,1400,1400,1400,0730,,1830,1830,1830,1830,1830,1400
"Schwantlern 3, 9056 Gais, Switzerland",Schwantlern 3,9056,Gais,Zürich,Switzerland,47.362897,9.454782999999999,4.4,78,SPAR Supermarkt Gais,ChIJG4unF24im0cRql0JZIzgA8s,,1330,1330,1330,1330,1330,0800,,1830,1830,1830,1830,1830,1600
"Kasernenstrasse 2, 9100 Herisau, Switzerland",Kasernenstrasse 2,9100,Herisau,Zürich,Switzerland,47.3856686,9.280847,3.8,83,SPAR Supermarkt,ChIJaaUZ2iremkcRKb3fhRWOQug,,0700,0700,0700,0700,0700,0700,,1900,1900,1900,1900,1900,1700
"Dorf 340, 9035 Grub, Switzerland",Dorf 340,9035,Grub,Zürich,Switzerland,47.4477816,9.510029099999999,4.5,97,SPAR Supermarkt Grub,ChIJeZ4QgYcZm0cRm1TwSD11zig,,0700,0700,0700,0700,0700,0700,,1830,1830,1830,1830,1830,1700
