Address,Street Name,Zip Code,City,Canton,Country,Latitude,Longitude,Rating,Number of Ratings,Place Name,Place ID,Sunday_Open,Monday_Open,Tuesday_Open,Wednesday_Open,Thursday_Open,Friday_Open,Saturday_Open,Sunday_Close,Monday_Close,Tuesday_Close,Wednesday_Close,Thursday_Close,Friday_Close,Saturday_Close
"Schrofenstrasse 18, 8580 Amriswil, Switzerland",Schrofenstrasse 18,8580,Amriswil,Thurgau,Switzerland,47.5478658,9.2758073,4.2,438,ALDI SUISSE,ChIJbRUg51L7mkcRFQytB0ihsSw,,0730,0730,0730,0730,0730,0730,,2000,2000,2000,2000,2000,2000
"Tägerwilerstrasse 2, + 4, 8280 Kreuzlingen, Switzerland",Tägerwilerstrasse 2,8280,Kreuzlingen,Zürich,Switzerland,47.65545379999999,9.1638434,4.3,547,ALDI SUISSE,ChIJyzr7aef2mkcRK26fL8HgqeE,,0730,0730,0730,0730,0730,0730,,2000,2000,2000,2000,2000,2000
"Wilerstrasse 98, 8370 Sirnach, Switzerland",Wilerstrasse 98,8370,Sirnach,Zürich,Switzerland,47.46255199999999,9.020765599999999,4.2,633,ALDI SUISSE,ChIJa3h7m6TrmkcRm7qVKfpOEsw,,0730,0730,0730,0730,0730,0730,,2000,2000,2000,2000,2000,2000
"Weststrasse 22, 8570 Weinfelden, Switzerland",Weststrasse 22,8570,Weinfelden,Thurgau,Switzerland,47.5684607,9.0956979,4.2,480,ALDI SUISSE,ChIJexDCX_jxmkcRaZUCRwUzh7Q,,0730,0730,0730,0730,0730,0730,,2000,2000,2000,2000,2000,2000
"Zürcherstrasse 381, 8500 Frauenfeld, Switzerland",Zürcherstrasse 381,8500,Frauenfeld,Thurgau,Switzerland,47.570623,8.9214721,4.2,523,ALDI SUISSE,ChIJFajXTAuSmkcRp0NYAxRAE7M,,0730,0730,0730,0730,0730,0730,,2000,2000,2000,2000,2000,2000
"Sittertalstrasse 16, 8589 Bischofszell, Switzerland",Sittertalstrasse 16,8589,Bischofszell,Thurgau,Switzerland,47.4993501,9.2409951,4.2,471,ALDI,ChIJtaB6NEPkmkcRS1-EzHCauqw,,0730,0730,0730,0730,0730,0730,,2000,2000,2000,2000,2000,2000
"Lengwilerstrasse 2, 8280 Kreuzlingen, Switzerland",Lengwilerstrasse 2,8280,Kreuzlingen,Zürich,Switzerland,47.6389228,9.2043049,4.3,374,ALDI SUISSE,ChIJL7_0zFH3mkcR4YB7ohLgou0,,0730,0730,0730,0730,0730,0730,,2000,2000,2000,2000,2000,2000
"Wespenstrasse 16, 8500 Frauenfeld, Switzerland",Wespenstrasse 16,8500,Frauenfeld,Thurgau,Switzerland,47.5636579,8.8797648,4.2,489,ALDI SUISSE,ChIJq7ere-6RmkcR8E_vD4lqztQ,,0730,0730,0730,0730,0730,0730,,2000,2000,2000,2000,2000,2000
"Wittenwilerstrasse 45, 8355 Aadorf, Switzerland",Wittenwilerstrasse 45,8355,Aadorf,Zürich,Switzerland,47.498657,8.9056916,4.3,529,ALDI SUISSE,ChIJacnLNoqTmkcRQuihoBwBAFE,,0730,0730,0730,0730,0730,0730,,2000,2000,2000,2000,2000,2000
"Herbergstrasse 26, 9524 Zuzwil, Switzerland",Herbergstrasse 26,9524,Zuzwil,St. Gallen,Switzerland,47.47009130000001,9.110127300000002,4.5,111,ALDI SUISSE,ChIJxbFnzv3pmkcRfwQ-G1pCvLk,,0730,0730,0730,0730,0730,0730,,1900,1900,1900,1900,2000,1700
"Rütistrasse 1, 9320 Arbon, Switzerland",Rütistrasse 1,9320,Arbon,Zürich,Switzerland,47.52099399999999,9.4179636,4.1,680,ALDI SUISSE,ChIJuzLrECQdm0cRwKd0sZc5ia4,,0730,0730,0730,0730,0730,0730,,2000,2000,2000,2000,2000,2000
"Breitestrasse 5, 9532 Rickenbach, Switzerland",Breitestrasse 5,9532,Rickenbach,Thurgau,Switzerland,47.4460506,9.052532300000001,4.4,381,ALDI SUISSE,ChIJX8KD8BbrmkcRfeFbQC3Tn-8,,0730,0730,0730,0730,0730,0730,,2000,2000,2000,2000,2000,2000
"Grossacker 2, 9244 Niederuzwil, Switzerland",Grossacker 2,9244,Niederuzwil,Zürich,Switzerland,47.4445762,9.1474513,4.3,525,ALDI SUISSE,ChIJ0WY9jYPomkcR22pIl6LY8Vo,,0730,0730,0730,0730,0730,0730,,1900,1900,1900,1900,2000,1700
"Sonnenstrasse 9, 8590 Romanshorn, Switzerland",Sonnenstrasse 9,8590,Romanshorn,Thurgau,Switzerland,47.5707311,9.365108200000002,4.3,418,ALDI SUISSE,ChIJdzb7Dw39mkcRdNO3-67oc0Y,,0730,0730,0730,0730,0730,0730,,2000,2000,2000,2000,2000,2000
"St. Gallerstrasse 43, 9400 Rorschach, Switzerland",St. Gallerstrasse 43,9400,Rorschach,Zürich,Switzerland,47.47809830000001,9.482156,4.4,291,ALDI SUISSE,ChIJz1fVslsbm0cRjJUx0qtmRIw,,0730,0730,0730,0730,0730,0730,,1900,1900,1900,1900,2000,1700
"Wilerstrasse 50, 9602 Bazenheid, Switzerland",Wilerstrasse 50,9602,Bazenheid,St. Gallen,Switzerland,47.4165924,9.0654694,4.3,385,ALDI SUISSE,ChIJWZ5x6ejpmkcR3ynz-yRYNj8,,0730,0730,0730,0730,0730,0730,,1900,1900,1900,1900,1900,1700
"Niederstettenstrasse 23, 9536 Jonschwil, Switzerland",Niederstettenstrasse 23,9536,Jonschwil,St. Gallen,Switzerland,47.448482,9.06937,3.9,264,ALDI Schwarzenbach,ChIJj7GGq8LrmkcRpba3-AG1vJU,,0800,0800,0800,0800,0800,0800,,1900,1900,1900,1900,1900,1700
"Guggenbühlstrasse 6, 8404 Winterthur, Switzerland",Guggenbühlstrasse 6,8404,Winterthur,Zürich,Switzerland,47.5109491,8.759488,4.1,71,ALDI SUISSE,ChIJe91O40SbmkcRYtiwjF2JDHg,,0730,0730,0730,0730,0730,0730,,2000,2000,2000,2000,2000,2000
"Tösstalstrasse 11, 8488 Turbenthal, Switzerland",Tösstalstrasse 11,8488,Turbenthal,Zürich,Switzerland,47.4416895,8.8339348,4.2,536,ALDI SUISSE,ChIJ_ckoFBWWmkcRjquChExmE7o,,0730,0730,0730,0730,0730,0730,,2000,2000,2000,2000,2000,2000
"Gennersbrunnerstraße 63, 8207 Schaffhausen, Switzerland",Gennersbrunnerstraße 63,8207,Schaffhausen,Schaffhausen,Switzerland,47.7162829,8.664720299999999,4.2,462,ALDI SUISSE,ChIJScYvgjOAmkcRpd7uZvw8lhU,,0730,0730,0730,0730,0730,0730,,2000,2000,2000,2000,2000,1800
"Ital. Str. 2A, 7430 Thusis, Switzerland",Ital. Str. 2A,7430,Thusis,Graubünden,Switzerland,46.7105701,9.4372892,4.3,440,ALDI SUISSE,ChIJ3Uf2m03qhEcRySjO8iXJox0,,0730,0730,0730,0730,0730,0800,,2000,2000,2000,2000,2000,1700
"Kasernenstrasse 53, 7000 Chur, Switzerland",Kasernenstrasse 53,7000,Chur,Graubünden,Switzerland,46.8467243,9.5218752,4.2,530,ALDI SUISSE,ChIJrQWxXm3HhEcR19aEHEs5fLI,,0730,0730,0730,0730,0730,0730,,2000,2000,2000,2000,2000,1800
"Grüneck 2, 7130 Ilanz, Switzerland",Grüneck 2,7130,Ilanz,Graubünden,Switzerland,46.7753093,9.1911968,4.2,323,ALDI,ChIJfdrbuC_ehEcRAYFl2e3dEfI,,0730,0730,0730,0730,0730,0730,,1930,1930,1930,1930,1930,1700
"Schulstrasse 82, 7302 Landquart, Switzerland",Schulstrasse 82,7302,Landquart,Graubünden,Switzerland,46.95596309999999,9.563898199999999,4.2,517,ALDI SUISSE,ChIJDanqSunJhEcRiqBNcx2wkbg,,0730,0730,0730,0730,0730,0730,,2000,2000,2000,2000,2000,2000
"Rheinfelsstrasse 4, 7000 Chur, Switzerland",Rheinfelsstrasse 4,7000,Chur,Graubünden,Switzerland,46.8519406,9.512665799999997,4.2,490,ALDI SUISSE,ChIJX3RYUVWhhEcRM-hm_XqZxAY,,0730,0730,0730,0730,0730,0730,,2000,2000,2000,2000,2000,1800
"Cho d'Punt 43, 7503 Samedan, Switzerland",Cho d'Punt 43,7503,Samedan,Graubünden,Switzerland,46.5291829,9.874726599999997,4.2,632,ALDI SUISSE,ChIJRVTm_R19g0cR69MZhar8yuQ,,0730,0730,0730,0730,0730,0730,,2000,2000,2000,2000,2000,2000
"Bahnhofstrasse 4A, 7270 Davos, Switzerland",Bahnhofstrasse 4A,7270,Davos,Graubünden,Switzerland,46.7921445,9.819453199999998,4.2,407,ALDI SUISSE,ChIJX3RYUVWhhEcRNu99gQzrrVI,,0730,0730,0730,0730,0730,0730,,2000,2000,2000,2000,2000,2000
"Bahnweg S 1, 9475 Sevelen, Switzerland",Bahnweg S 1,9475,Sevelen,Zürich,Switzerland,47.124572,9.497059499999999,4.2,447,ALDI SUISSE,ChIJcRqyH9Izm0cRyYM6CL2WYVM,,0730,0730,0730,0730,0730,0730,,1900,1900,1900,1900,2000,1700
"Via S. Bernardino 18, 6532 Arbedo-Castione, Switzerland",Via S. Bernardino 18,6532,Arbedo-Castione,Ticino,Switzerland,46.2228505,9.0512907,4.2,518,ALDI,ChIJRdoFk-JLhEcRZnOxNaK6RUI,,0730,0730,0730,0730,0730,0730,,1900,1900,1900,2100,1900,1830
"Lochrietstrasse 18, 8890 Flums, Switzerland",Lochrietstrasse 18,8890,Flums,Zürich,Switzerland,47.0976989,9.352774400000001,4.2,370,ALDI,ChIJtXyO4I0sm0cRW85M7p2BTzc,,0730,0730,0730,0730,0730,0730,,2000,2000,2000,2000,2000,2000
"Churerstrasse 12, 9470 Buchs, Switzerland",Churerstrasse 12,9470,Buchs,Zürich,Switzerland,47.1635996,9.473360000000001,4.5,295,ALDI SUISSE,ChIJA0H25oYxm0cRJg-eA2JSODA,,0730,0730,0730,0730,0730,0730,,1900,1900,2000,1900,2000,1700
"Via Bellinzona 46, 6710 Biasca, Switzerland",Via Bellinzona 46,6710,Biasca,Ticino,Switzerland,46.3493611,8.974291599999999,4.2,419,ALDI,ChIJLTW8WCKthUcR5uzEedDYrQ8,,0730,0730,0730,0730,0730,0730,,1900,1900,1900,2100,1900,1830
"Via Monte Ceneri 24, 6512 Giubiasco, Switzerland",Via Monte Ceneri 24,6512,Giubiasco,Ticino,Switzerland,46.1676,9.0003,4.1,673,ALDI,ChIJ8_EJR3JKhEcRcHAg5Utvnnw,,0730,0730,0730,0730,0730,0730,,1900,1900,1900,2100,1900,1830
"Via Monte Ceneri 6, 6572 Quartino, Switzerland",Via Monte Ceneri 6,6572,Quartino,Ticino,Switzerland,46.1529224,8.9138679,4.3,791,ALDI SUISSE,ChIJcWpOpn7KhUcRZdXng2t-aak,,0730,0730,0730,0730,0730,0730,,1900,1900,1900,2100,1900,1830
"Schweizerhofstrasse 14, 8750 Glarus, Switzerland",Schweizerhofstrasse 14,8750,Glarus,Zürich,Switzerland,47.041402,9.070478,4.5,115,ALDI SUISSE,ChIJD5CmTrYthUcRv2294I-foHE,,0730,0730,0730,0730,0730,0730,,2000,2000,2000,2000,2000,2000
"Via Cantonale 4, 6805 Mezzovico-Vira, Switzerland",Via Cantonale 4,6805,Mezzovico-Vira,Ticino,Switzerland,46.0898082,8.921504400000003,4.1,523,ALDI SUISSE,ChIJ_RHM4ag0hEcRp3M2ossoAos,,0730,0730,0730,0730,0730,0730,,1900,1900,1900,2100,1900,1830
"Hertensteinstrasse 50, 6004 Luzern, Switzerland",Hertensteinstrasse 50,6004,Luzern,Luzern,Switzerland,47.0541391,8.307682999999999,4.4,385,ALDI SUISSE,ChIJEx8FZqD7j0cR_Y8dlArfrUY,,0800,0800,0800,0800,0800,0800,,1900,1900,1900,2000,1900,1700
"Sentipark, Bruchstrasse 2/Haus D, 6003 Luzern, Switzerland",Sentipark,6003,Luzern,Luzern,Switzerland,47.0516312,8.2987144,4.2,618,ALDI SUISSE,ChIJ_____wz7j0cRITgSz9uVZvk,,0730,0730,0730,0730,0730,0730,,1900,1900,1900,2100,1900,1700
"Schönbühl, Langensandstrasse 23, 6005 Luzern, Switzerland",Schönbühl,6005,Luzern,Luzern,Switzerland,47.037326,8.328406000000001,4.3,217,ALDI SUISSE,ChIJm5HiNs_7j0cRRKErszEvvGw,,0830,0830,0830,0800,0830,0700,,1900,1900,1900,1900,2000,1700
"Seetalstrasse 11, 6020 Emmen, Switzerland",Seetalstrasse 11,6020,Emmen,Luzern,Switzerland,47.07084539999999,8.2841731,4.2,498,ALDI SUISSE,ChIJFRdpA2D7j0cRS6Rj37dJfAo,,0730,0730,0730,0730,0730,0730,,1900,1900,1900,1900,2100,1700
"SchappeCenter, Hobacherweg 2, 6010 Kriens, Switzerland",SchappeCenter,6010,Kriens,Luzern,Switzerland,47.03432979999999,8.2730967,4.2,237,ALDI,ChIJQfFCJyD7j0cRFmYETaidcuE,,0800,0800,0800,0800,0800,0730,,1900,1900,1900,1900,2000,1700
"Ringcenter, Ringstrasse 27, 6010 Kriens, Switzerland",Ringcenter,6010,Kriens,Luzern,Switzerland,47.0244135,8.294656999999997,4.2,697,ALDI SUISSE,ChIJR2WNL1b6j0cRi2yOR3c0cLY,,0730,0730,0730,0730,0730,0730,,1900,1900,1900,1900,2100,1700
"Pilatusstrasse 18, 6036 Dierikon, Switzerland",Pilatusstrasse 18,6036,Dierikon,Luzern,Switzerland,47.0936703,8.3621615,4.1,376,ALDI SUISSE,ChIJvxilVp3-j0cR55LkkJjRFY0,,0730,0730,0730,0730,0730,0730,,1900,1900,1900,1900,2100,1700
"Eigerstrasse 82, 3007 Bern, Switzerland",Eigerstrasse 82,3007,Bern,Bern,Switzerland,46.9395682,7.440432800000001,4.1,636,ALDI,ChIJxblQ6Mk5jkcRQErVUvlSFII,,0800,0800,0800,0800,0800,0800,,2000,2000,2000,2000,2000,1700
"Spitalgasse 34, 3011 Bern, Switzerland",Spitalgasse 34,3011,Bern,Bern,Switzerland,46.9481474,7.441864799999999,4.3,145,ALDI SUISSE,ChIJmZmwARg5jkcRFrmX-gI6lZ8,,0800,0800,0800,0800,0800,0730,,2000,2000,2000,2000,2000,1800
"Murtenstrasse 143, 3008 Bern, Switzerland",Murtenstrasse 143,3008,Bern,Bern,Switzerland,46.9491349,7.4090227,4.1,731,ALDI SUISSE Bern,ChIJG9HfYQ45jkcRJNRN6eG4CcY,,0800,0800,0800,0800,0800,0800,,2000,2000,2000,2000,2000,1700
"Kornhauspl. 7, 3011 Bern, Switzerland",Kornhauspl. 7,3011,Bern,Bern,Switzerland,46.94842159999999,7.4478334,4.3,90,ALDI SUISSE,ChIJCY0Wk-85jkcR2wD9iNGO4f8,,0800,0800,0800,0800,0800,0730,,2000,2000,2000,2000,2000,1800
"Seftigenstrasse 310, 3084 Wabern bei Bern, Switzerland",Seftigenstrasse 310,3084,Wabern,Bern,Switzerland,46.9262226,7.454987200000001,4.1,381,ALDI SUISSE,ChIJC9fLOyk4jkcR53HRID7yHRg,,0800,0800,0800,0800,0800,0800,,2000,2000,2000,2000,2000,1700
"Stapfenstrasse 4, 3098 Köniz, Switzerland",Stapfenstrasse 4,3098,Köniz,Bern,Switzerland,46.9226841,7.414845,4.2,113,ALDI SUISSE,ChIJU8bSzKU5jkcR3_0s-hUYlDs,,0800,0800,0800,0800,0800,0800,,2000,2000,2000,2000,2000,1700
"Milchstrasse 2/8, 3072 Ostermundigen, Switzerland",Milchstrasse 2/8,3072,Ostermundigen,Bern,Switzerland,46.9632726,7.481859899999999,4.1,763,ALDI SUISSE,ChIJEYYpak43jkcRFiSTwytU5Bw,,0800,0800,0800,0800,0800,0800,,2000,2000,2000,2000,2000,1700
"Talgut-Zentrum 19, 3063 Ittigen, Switzerland",Talgut-Zentrum 19,3063,Ittigen,Bern,Switzerland,46.97417009999999,7.481685799999998,4.2,226,ALDI SUISSE,ChIJ1Yn4za0wjkcRIT6zzppuxq8,,0800,0800,0800,0800,0800,0800,,1900,1900,1900,1900,2000,1700
"Rte Cantonale 24, 1964 Conthey, Switzerland",Rte Cantonale 24,1964,Conthey,Valais,Switzerland,46.2238365,7.3065477,4.0,743,ALDI SUISSE Conthey,ChIJNcB7n5TcjkcRsF-9k2WU3gU,,0730,0730,0730,0730,0730,0730,,1700,1830,1830,1830,2100,1700
"Av. de Fully 41, 1920 Martigny, Switzerland",Av. de Fully 41,1920,Martigny,Valais,Switzerland,46.1091992,7.0761873,4.1,791,ALDI SUISSE,ChIJt4DJDS7IjkcRHhPAShiD1IY,,0730,0730,0730,0730,0730,0730,,1830,1830,1830,1830,2000,1700
"Rue des Casernes 55a, 1950 Sion, Switzerland",Rue des Casernes 55a,1950,Sion,Valais,Switzerland,46.22814359999999,7.379541999999999,4.1,993,ALDI SUISSE,ChIJlznk_ZrejkcRXGqiTLzk6jA,,0730,0730,0730,0730,0730,0730,,1830,1830,1830,1830,2000,1700
"Av. de la Gare 26, 1870 Monthey, Switzerland",Av. de la Gare 26,1870,Monthey,Valais,Switzerland,46.25368719999999,6.9509263,4.1,146,ALDI SUISSE Monthey,ChIJQ88qXlC9jkcRxyLk8BBuqus,,0800,0800,0800,0800,0800,0800,,1830,1830,1830,1830,2000,1700
"Kantonsstrasse 66a, 3930 Visp, Switzerland",Kantonsstrasse 66a,3930,Visp,Valais,Switzerland,46.2956325,7.916589499999999,4.1,482,ALDI SUISSE,ChIJ1clmwKRrj0cRNMkK-uKzxBk,,0730,0730,0730,0730,0730,0730,,1830,1830,1830,1830,2000,1700
"Z.A. Entre deux Fossaux 8, 1868 Collombey-Muraz, Switzerland",Z.A. Entre deux Fossaux 8,1868,Collombey-Muraz,Valais,Switzerland,46.2662468,6.956314799999999,4.0,626,ALDI SUISSE Collombey,ChIJNcB7n5TcjkcRF1v95eQ2UcM,,0730,0730,0730,0730,0730,0730,,1830,1830,1830,1830,2100,1700
"Rue Thèodore Stéphani 5, 3963 Crans-Montana, Switzerland",Rue Thèodore Stéphani 5,3963,Crans-Montana,Valais,Switzerland,46.3123031,7.480925499999998,4.2,295,ALDI SUISSE,ChIJj3ma1dvhjkcRfLi3wWamWaE,0800,0730,0730,0730,0730,0730,0730,1900,1900,1900,1900,1900,1900,1900
"Av. du Général-Guisan 32, 1800 Vevey, Switzerland",Av. du Général-Guisan 32,1800,Vevey,Vaud,Switzerland,46.46506189999999,6.8391098,4.1,253,ALDI SUISSE Vevey,ChIJBUXjPwydjkcRJLGXWgP5A8I,,0800,0800,0800,0800,0800,0800,,1830,1830,1830,1830,2000,1700
"Glismattenstrasse 20, 3902 Brig-Glis, Switzerland",Glismattenstrasse 20,3902,Brig-Glis,Valais,Switzerland,46.3152279,7.983443299999999,4.1,440,ALDI,ChIJ2XwdUs1uj0cRsrX6bLyRxSI,,0730,0730,0730,0730,0730,0730,,1830,1830,1830,1830,2000,1700
"Les Malliez 1, 1845 Noville, Switzerland",Les Malliez 1,1845,Noville,Vaud,Switzerland,46.3850029,6.9200682,4.0,890,ALDI SUISSE Noville,ChIJ36F3gSeajkcRjam89yMmxzM,,0730,0730,0730,0730,0730,0730,,1930,1930,1930,1930,2100,1800
"Baumackerstrasse 35, 8050 Zürich, Switzerland",Baumackerstrasse 35,8050,Zürich,Zürich,Switzerland,47.40888,8.543623199999999,4.2,715,ALDI SUISSE,ChIJ4WVSVoYKkEcRmOW3387iN80,,0730,0730,0730,0730,0730,0730,,2000,2000,2000,2000,2000,2000
"Binzmühlestrasse 102, 8050 Zürich, Switzerland",Binzmühlestrasse 102,8050,Zürich,Zürich,Switzerland,47.4137869,8.5390221,4.2,665,ALDI SUISSE,ChIJfXZer48KkEcRZGXVjGdb63Q,,0730,0730,0730,0730,0730,0730,,2000,2000,2000,2000,2000,2000
"Zwirnereistrasse 7/9, 8304 Wallisellen, Switzerland",Zwirnereistrasse 7/9,8304,Wallisellen,Zürich,Switzerland,47.40461459999999,8.602686099999998,4.4,310,ALDI SUISSE AG,ChIJBQI_RmWhmkcR2FM7dz_JygM,,0730,0730,0730,0730,0730,0730,,2000,2000,2000,2000,2000,2000
"Hofwisenstrasse 42, 8153 Rümlang, Switzerland",Hofwisenstrasse 42,8153,Rümlang,Zürich,Switzerland,47.4504138,8.5381529,4.2,605,ALDI SUISSE,ChIJrY6f1jV1kEcRJapIYyr12dM,,0730,0730,0730,0730,0730,0730,,2000,2000,2000,2000,2000,2000
"Zollstrasse 58, 8005 Zürich, Switzerland",Zollstrasse 58,8005,Zürich,Zürich,Switzerland,47.3808365,8.533189299999998,4.3,1097,Aldi,ChIJDXAJGA4KkEcRwgtNwO0k-og,,0730,0730,0730,0730,0730,0730,,2100,2100,2100,2100,2100,2100
"Hohlstrasse 473, 8048 Zürich, Switzerland",Hohlstrasse 473,8048,Zürich,Zürich,Switzerland,47.38831870000001,8.4967741,4.2,795,ALDI SUISSE,ChIJk8Q16soLkEcR0EmqCVwiJzo,,0730,0730,0730,0730,0730,0730,,2100,2100,2100,2100,2100,2100
"Schärenmoosstrasse 77, 8052 Zürich, Switzerland",Schärenmoosstrasse 77,8052,Zürich,Zürich,Switzerland,47.4194852,8.556865,4.3,471,ALDI SUISSE - Zurich,ChIJo_8PBHagmkcRN3TJBmfo0yM,,0730,0730,0730,0730,0730,0730,,2000,2000,2000,2000,2000,2000
"Stadelhoferstrasse 10, 8001 Zürich, Switzerland",Stadelhoferstrasse 10,8001,Zürich,Zürich,Switzerland,47.366789,8.5480012,3.9,152,ALDI SUISSE,ChIJBYn0pI6hmkcRSTohGC3CLI0,0700,0600,0600,0600,0600,0600,0600,2200,2200,2200,2200,2200,2200,2200
"Wagistrasse 20, 8952 Schlieren, Switzerland",Wagistrasse 20,8952,Schlieren,Zürich,Switzerland,47.3984406,8.459741800000002,4.1,307,ALDI SUISSE,ChIJd3yCx44LkEcRJUSpwV7AdxY,,0900,0900,0900,0900,0900,0900,,2000,2000,2000,2000,2000,1800
"Sihlstrasse 3, 8001 Zürich, Switzerland",Sihlstrasse 3,8001,Zürich,Zürich,Switzerland,47.37372690000001,8.537652500000002,4.4,270,ALDI SUISSE,ChIJARezx08LkEcRs5-eJWmmc6E,,0800,0800,0800,0800,0800,0800,,2100,2100,2100,2100,2100,2100
"Goldschlägipl. 3, 8952 Schlieren, Switzerland",Goldschlägipl. 3,8952,Schlieren,Zürich,Switzerland,47.4001171,8.441642400000001,4.2,358,ALDI SUISSE,ChIJr2dX33EMkEcRfmUG6OCMWzI,,0730,0730,0730,0730,0730,0730,,2000,2000,2000,2000,2000,2000
"Badenerstrasse 565, 8048 Zürich, Switzerland",Badenerstrasse 565,8048,Zürich,Zürich,Switzerland,47.3837812,8.4975848,4.2,713,ALDI SUISSE,ChIJh6tFTzMKkEcRWDuWP-eNKCk,,0730,0730,0730,0730,0730,0730,,2100,2100,2100,2100,2100,2100
"Industriestrasse 31, 8305 Dietlikon, Switzerland",Industriestrasse 31,8305,Dietlikon,Zürich,Switzerland,47.4122774,8.619218199999999,4.1,429,ALDI,ChIJD8TXkrqhmkcRBlobz2Vpk3s,,0730,0730,0730,0730,0730,0730,,2000,2000,2000,2000,2000,2000
"Balz-Zimmermannstrasse 7, 8152 Opfikon, Switzerland",Balz-Zimmermannstrasse 7,8152,Opfikon,Zürich,Switzerland,47.4389559,8.570195,4.6,91,ALDI SUISSE,ChIJk1xUv26hmkcRqvGfhCSDDwo,,0730,0730,0730,0730,0730,0730,,2000,2000,2000,2000,2000,2000
"Witikonerstr. 279, 8053 Zürich, Switzerland",Witikonerstr. 279,8053,Zürich,Zürich,Switzerland,47.35863060000001,8.5854632,4.3,199,ALDI SUISSE,ChIJxXEJCJmnmkcR0vOQ6iIwg8g,,0730,0730,0730,0730,0730,0730,,2000,2000,2000,2000,2000,2000
"Ueberlandstrasse 441, 8051 Zürich, Switzerland",Ueberlandstrasse 441,8051,Zürich,Zürich,Switzerland,47.4058514,8.5921951,4.2,495,ALDI SUISSE,ChIJUQ1xGVegmkcRtgKawr27tqk,,0730,0730,0730,0730,0730,0730,,2000,2000,2000,2000,2000,2000
"Im Schossacher 24, 8600 Dübendorf, Switzerland",Im Schossacher 24,8600,Dübendorf,Zürich,Switzerland,47.3928061,8.642375000000001,4.2,546,ALDI SUISSE,ChIJKcxEMnyhmkcRlEcrIOo0NEU,,0730,0730,0730,0730,0730,0730,,2000,2000,2000,2000,2000,2000
"Industriestrasse 4, 8424 Embrach, Switzerland",Industriestrasse 4,8424,Embrach,Zürich,Switzerland,47.51649980000001,8.5943263,4.2,666,ALDI SUISSE,ChIJJYCjOwaemkcRJP39a21itG0,,0730,0730,0730,0730,0730,0730,,2000,2000,2000,2000,2000,2000
"Feldstrasse 32, 8105 Regensdorf, Switzerland",Feldstrasse 32,8105,Regensdorf,Zürich,Switzerland,47.4383568,8.4730396,4.1,571,ALDI Regensdorf,ChIJ1xZGUloLkEcRs5h_KL6YQvk,,0730,0730,0730,0730,0730,0730,,2000,2000,2000,2000,2000,2000
"Grabenstrasse 5, 8184 Bachenbülach, Switzerland",Grabenstrasse 5,8184,Bachenbülach,Zürich,Switzerland,47.5053705,8.540453300000001,4.1,469,ALDI SUISSE,ChIJwwkq68l1kEcRQB5lxBZHhRc,,0730,0730,0730,0730,0730,0730,,2000,2000,2000,2000,2000,2000
"Dornacherstrasse 26/28, 4500 Solothurn, Switzerland",Dornacherstrasse 26/28,4500,Solothurn,Solothurn,Switzerland,47.20399279999999,7.540738699999998,3.9,512,ALDI SUISSE,ChIJv4q0N_zXkUcR4C5iZzZ_dWA,,0800,0800,0800,0800,0800,0800,,1830,1830,1830,2000,1830,1800
"Bürenstrasse 91, 4562 Biberist, Switzerland",Bürenstrasse 91,4562,Biberist,Solothurn,Switzerland,47.19720900000001,7.5292271,4.2,646,ALDI SUISSE,ChIJA6nHn_EnjkcRoASkWnfAYPI,,0800,0800,0800,0800,0800,0800,,1830,1830,1830,1830,2000,1800
"Rte d'Oron 39, 1000 Lausanne, Switzerland",Rte d'Oron 39,1000,Lausanne,Vaud,Switzerland,46.535516,6.655594599999999,3.8,656,ALDI SUISSE Lausanne,ChIJo4iQG2gujEcRWana8qUGXzc,,0800,0800,0800,0800,0800,0800,,1900,1900,1900,1900,1900,1800
"Av. du Chablais 3B, 1007 Lausanne, Switzerland",Av. du Chablais 3B,1007,Lausanne,Vaud,Switzerland,46.5268526,6.603658099999999,4.0,736,ALDI SUISSE Lausanne,ChIJWz2JMM8xjEcRewhwxjt7BHE,,0800,0800,0800,0800,0800,0800,,1900,1900,1900,1900,1900,1800
"Rue Saint-Martin 3, 1003 Lausanne, Switzerland",Rue Saint-Martin 3,1003,Lausanne,Vaud,Switzerland,46.521581,6.6364048,3.9,1036,ALDI,ChIJEfE7ATQujEcR9a3grdltbMg,,0730,0730,0730,0730,0730,0730,,1900,1900,1900,1900,1900,1800
"Bd de l'Arc-en-Ciel 45, 1030 Bussigny, Switzerland",Bd de l'Arc-en-Ciel 45,1030,Bussigny,Vaud,Switzerland,46.5460295,6.564338999999999,4.0,1041,Aldi,ChIJATfZim4xjEcRBCcdXYVIu0I,,0800,0800,0800,0800,0800,0800,,1900,1900,1900,1900,2000,1800
"Rte de Reculan 7, 1024 Ecublens, Switzerland",Rte de Reculan 7,1024,Ecublens,Vaud,Switzerland,46.5391644,6.554354100000001,4.0,495,Aldi,ChIJATfZim4xjEcRTkWYYpAOLCY,,0800,0800,0800,0800,0800,0800,,1900,1900,1900,1900,1900,1800
"Avenue de Longemalle 1, 1020 Renens (VD), Switzerland",Avenue de Longemalle 1,1020,Renens,Vaud,Switzerland,46.5288273,6.5920299,3.9,499,ALDI,ChIJW2MgSbYxjEcRnkuSl7sUu0Q,,0730,0730,0730,0730,0730,0730,,1900,1900,1900,1900,1900,1700
"Rue de la Chenalette 177, 1163 Etoy, Switzerland",Rue de la Chenalette 177,1163,Etoy,Vaud,Switzerland,46.47373229999999,6.427449500000001,3.9,339,ALDI SUISSE Etoy,ChIJATfZim4xjEcR3gD5TWb1VUo,,0800,0800,0800,0800,0800,0800,,1900,1900,1900,2000,1900,1900
"Rue de Lausanne 47, 1110 Morges, Switzerland",Rue de Lausanne 47,1110,Morges,Vaud,Switzerland,46.516306,6.5057885,4.0,778,ALDI SUISSE Morges,ChIJy3mJ6iI3jEcRPE2YZSbraOg,,0800,0800,0800,0800,0800,0800,,1845,1845,1845,1845,2000,1800
"Rte de Gland 36, 1267 Vich, Switzerland",Rte de Gland 36,1267,Vich,Vaud,Switzerland,46.426064,6.253407499999999,4.1,736,ALDI SUISSE Vich,ChIJKQO6SKREjEcReclcp-G9MPk,,0730,0730,0730,0730,0730,0730,,1930,1930,1930,1930,2000,1800
"Rue des Terreaux 25, 1003 Lausanne, Switzerland",Rue des Terreaux 25,1003,Lausanne,Vaud,Switzerland,46.52244399999999,6.627460799999999,3.6,67,Aldi,ChIJldhOan4vjEcRv0R1bAR36NE,,0800,0800,0800,0800,0800,0800,,1900,1900,1900,1900,1900,1800
"Chemin des Taborneires 6, 1350 Orbe, Switzerland",Chemin des Taborneires 6,1350,Orbe,Vaud,Switzerland,46.7194096,6.546114299999999,4.1,817,ALDI SUISSE Orbe,ChIJsZDT0GDJjUcRi4lKEy0K8aU,,0800,0800,0800,0800,0800,0800,,1830,1830,1830,1830,2000,1700
"En Chamard 44, 1442 Montagny-près-Yverdon, Switzerland",En Chamard 44,1442,Montagny-près-Yverdon,Vaud,Switzerland,46.79124289999999,6.6220443,4.0,810,ALDI SUISSE Montagny-près-Yverdon,ChIJ74yRUIjFjUcRDM_P0UWVcpM,,0800,0800,0800,0800,0800,0800,,1900,1900,1900,1900,2000,1800
"Rte de Lausanne 1, 1610 Châtillens, Switzerland",Rte de Lausanne 1,1610,Châtillens,Vaud,Switzerland,46.5703402,6.8172508,4.2,764,ALDI SUISSE Châtillens,ChIJl6T2DN-BjkcRr3T0PxH6K4Y,,0800,0800,0800,0800,0800,0800,,1900,1900,1900,1900,1900,1800
"Rte de l'Industrie 7, 1680 Romont, Switzerland",Rte de l'Industrie 7,1680,Romont,Vaud,Switzerland,46.6873745,6.908287700000001,4.1,542,ALDI,ChIJKfcppMl-jkcRIe1ns9oXrrc,,0800,0800,0800,0800,0800,0800,,1900,1900,1900,1900,2000,1600
"Z.I. La Palaz B8, 1530 Payerne, Switzerland",Z.I. La Palaz B8,1530,Payerne,Vaud,Switzerland,46.8262125,6.927516699999999,4.1,725,ALDI SUISSE Payerne,ChIJwfH4E-52jkcRPSmVXf0DbAs,,0730,0730,0730,0730,0730,0730,,1900,1900,1900,1900,2100,1700
"Rte de Saint-Loup 2, 1290 Versoix, Switzerland",Rte de Saint-Loup 2,1290,Versoix,Vaud,Switzerland,46.2794136,6.165204999999998,4.2,205,ALDI SUISSE Versoix,ChIJWzrXxd9njEcRrAsuOE5tJ-4,,0800,0800,0800,0800,0800,0800,,1900,1900,1900,2000,1900,1800
"Albisstrasse 81, 8038 Zürich, Switzerland",Albisstrasse 81,8038,Zürich,Zürich,Switzerland,47.3409069,8.5306032,4.4,297,ALDI SUISSE,ChIJgftGuzAJkEcRnHASrlZ4gYU,,0730,0730,0730,0730,0730,0730,,2100,2100,2100,2100,2100,2100
"Mythenquai 353, 8038 Zürich, Switzerland",Mythenquai 353,8038,Zürich,Zürich,Switzerland,47.3454582,8.534743799999998,4.8,13,ALDI SUISSE,ChIJQf44-eWnmkcRiB-wSX3t_k8,,0730,0730,0730,0730,0730,0730,,2100,2100,2100,2100,2100,2100
"Wehntalerstrasse 634, 8046 Zürich, Switzerland",Wehntalerstrasse 634,8046,Zürich,Zürich,Switzerland,47.42319,8.4994569,5.0,7,ALDI SUISSE,ChIJYev_rjALkEcRs4pt1dyl9Fc,,0730,0730,0730,0730,0730,0730,,2000,2000,2000,2000,2000,2000
"Dietlimoosplatz 1, 8134 Adliswil, Switzerland",Dietlimoosplatz 1,8134,Adliswil,Zürich,Switzerland,47.32216049999999,8.529346199999997,4.4,60,ALDI SUISSE,ChIJNfdm5i2nmkcRADcuUzDZoAk,,0800,0800,0800,0800,0800,0800,,2000,2000,2000,2000,2000,2000
"Industriestrasse 1, 5000 Aarau, Switzerland",Industriestrasse 1,5000,Aarau,Aargau,Switzerland,47.3924285,8.0583125,4.1,424,ALDI SUISSE,ChIJZ_ke-_k7kEcR5QRqgb5vOII,,0900,0900,0900,0900,0900,0900,,1900,1900,1900,1900,1900,1800
"Birmenstorferstrasse 1, 5442 Fislisbach, Switzerland",Birmenstorferstrasse 1,5442,Fislisbach,Aargau,Switzerland,47.4385121,8.291381300000001,4.3,603,ALDI SUISSE,ChIJgZmrA20TkEcRQUhbMopzdCQ,,0800,0800,0800,0800,0800,0800,,2000,2000,2000,2000,2000,2000
"Lenzburgerstrasse 2, 5702 Niederlenz, Switzerland",Lenzburgerstrasse 2,5702,Niederlenz,Aargau,Switzerland,47.3978257,8.1782268,4.2,644,ALDI Niederlenz,ChIJWYgdtPoVkEcRhk_LhR_4uRU,,0730,0730,0730,0730,0730,0730,,2000,2000,2000,2000,2000,2000
"Spitalweidstrasse 1, 4665 Oftringen, Switzerland",Spitalweidstrasse 1,4665,Oftringen,Aargau,Switzerland,47.3067133,7.925871099999999,4.4,385,ALDI SUISSE,ChIJH5iSaZEvkEcR-MwlPfubFj4,,0800,0800,0800,0800,0800,0800,,2000,2000,2000,2000,2000,1900
"Fabrikweg 16, 5033 Buchs, Switzerland",Fabrikweg 16,5033,Buchs,Aargau,Switzerland,47.3873354,8.081540900000002,4.2,403,ALDI,ChIJodxo3BY8kEcR_zB0lG958Gk,,0800,0800,0800,0800,0800,0800,,2000,2000,2000,2000,2000,2000
"Lägernstrasse 5, 5610 Wohlen, Switzerland",Lägernstrasse 5,5610,Wohlen,Aargau,Switzerland,47.35840349999999,8.272752399999998,4.2,729,ALDI SUISSE,ChIJV13FuBcRkEcRv_QTRxrhZ7c,,0730,0730,0730,0730,0730,0730,,2000,2000,2000,2000,2000,2000
"Mattenfeldstrasse 1, 5734 Reinach, Switzerland",Mattenfeldstrasse 1,5734,Reinach,Aargau,Switzerland,47.262388,8.175683,4.2,764,ALDI SUISSE,ChIJQQxnZhwZkEcRqeGXPGciUqI,,0730,0730,0730,0730,0730,0730,,2000,2000,2000,2000,2000,2000
"Grenzweg 3, 5612 Villmergen, Switzerland",Grenzweg 3,5612,Villmergen,Aargau,Switzerland,47.3497923,8.2587294,4.2,621,ALDI SUISSE,ChIJe-tyqicRkEcR1Zc4xJOivyY,,0730,0730,0730,0730,0730,0730,,2000,2000,2000,2000,2000,2000
"Feldstrasse 5, 5036 Oberentfelden, Switzerland",Feldstrasse 5,5036,Oberentfelden,Aargau,Switzerland,47.357478,8.0559677,4.1,647,ALDI SUISSE,ChIJfY4bKYI8kEcRkUPJ9JTrDU8,,0730,0730,0730,0730,0730,0730,,2000,2000,2000,2000,2000,2000
"Hauptstrasse 132, 5070 Frick, Switzerland",Hauptstrasse 132,5070,Frick,Aargau,Switzerland,47.5014245,8.0322959,4.3,639,ALDI SUISSE,ChIJO4jb3pdHkEcRA6ZFNWxTiDI,,0800,0800,0800,0800,0800,0800,,2000,2000,2000,2000,2000,2000
"Landstrasse 99, 5430 Wettingen, Switzerland",Landstrasse 99,5430,Wettingen,Aargau,Switzerland,47.4658547,8.3273079,4.1,368,ALDI SUISSE,ChIJXeEzBSptkEcRMm4QX_oETEA,,0800,0800,0800,0800,0800,0800,,2000,2000,2000,2000,2000,1800
"Wambisterstrasse 5, 5412 Gebenstorf, Switzerland",Wambisterstrasse 5,5412,Gebenstorf,Aargau,Switzerland,47.48904569999999,8.2442045,4.2,794,ALDI SUISSE,ChIJiUbc5xhrkEcRT6cC3-pMVt4,,0730,0730,0730,0730,0730,0730,,2000,2000,2000,2000,2000,2000
"Bahnhofstrasse 31, 5400 Baden, Switzerland",Bahnhofstrasse 31,5400,Baden,Aargau,Switzerland,47.47687699999999,8.308165099999998,4.1,76,ALDI SUISSE,ChIJ62FdFj9tkEcReBX11L81ERA,,0630,0630,0630,0630,0630,0630,,2000,2000,2000,2000,2000,2000
"Zürcherstrasse 55, 8953 Dietikon, Switzerland",Zürcherstrasse 55,8953,Dietikon,Zürich,Switzerland,47.4031325,8.406144200000002,4.2,520,ALDI SUISSE,ChIJZV0Rz0wMkEcROdqIGknfc3E,,0730,0730,0730,0730,0730,0730,,2000,2000,2000,2000,2000,2000
"Bernstrasse 378, 8953 Dietikon, Switzerland",Bernstrasse 378,8953,Dietikon,Zürich,Switzerland,47.3855111,8.3957628,4.3,671,ALDI SUISSE,ChIJzaEOONINkEcRtMs3ORRfvN0,,0730,0730,0730,0730,0730,0730,,2000,2000,2000,2000,2000,2000
"Ruchwiesenstrasse 5, 8157 Dielsdorf, Switzerland",Ruchwiesenstrasse 5,8157,Dielsdorf,Zürich,Switzerland,47.4819575,8.466339799999998,4.3,425,ALDI SUISSE,ChIJVyBmvXpzkEcRZe7g3WgUn5A,,0730,0730,0730,0730,0730,0730,,2000,2000,2000,2000,2000,2000
"Dammstrasse 24, 8112 Otelfingen, Switzerland",Dammstrasse 24,8112,Otelfingen,Zürich,Switzerland,47.4594554,8.4013037,4.2,578,ALDI SUISSE,ChIJb6QGv8tykEcR5Fc1yfnWSuQ,,0730,0730,0730,0730,0730,0730,,2000,2000,2000,2000,2000,2000
"Neue Aarburgerstrasse 22, 4852 Rothrist, Switzerland",Neue Aarburgerstrasse 22,4852,Rothrist,Aargau,Switzerland,47.3063371,7.8862152,4.5,193,ALDI SUISSE,ChIJK0em2CsvkEcRJkKvAeIfH0w,,0800,0800,0800,0800,0800,0800,,2000,2000,2000,2000,2000,2000
"Im Grund 18, 5014 Gretzenbach, Switzerland",Im Grund 18,5014,Gretzenbach,Solothurn,Switzerland,47.35882009999999,7.989114499999999,4.2,453,ALDI SUISSE,ChIJndRT6vA6kEcRaTyGhmgbKGs,,0730,0730,0730,0730,0730,0730,,1830,1830,1830,2000,1830,1800
"Flüelerstrasse 34, 6460 Altdorf, Switzerland",Flüelerstrasse 34,6460,Altdorf,Uri,Switzerland,46.8875562,8.634229999999999,4.1,413,ALDI SUISSE,ChIJEcBNy39DhUcRTB0sXlmQdLU,,0730,0730,0730,0730,0730,0730,,1830,1830,1830,1830,2000,1700
"Rue des Draizes 7, 2000 Neuchâtel, Switzerland",Rue des Draizes 7,2000,Neuchâtel,Neuchâtel,Switzerland,46.9888147,6.902913199999999,3.7,966,ALDI SUISSE Neuchâtel,ChIJTaUF1OfhjUcRDMjCQCtDkiI,,0800,0800,0800,0800,0800,0800,,1900,1900,1900,2000,1900,1800
"Rue Saint-Honoré 18, 2000 Neuchâtel, Switzerland",Rue Saint-Honoré 18,2000,Neuchâtel,Neuchâtel,Switzerland,46.99056779999999,6.930406,4.0,200,ALDI SUISSE Neuchâtel,ChIJj0WAq4kLjkcRfrZYnaV6Ne8,,0800,0800,0800,0800,0800,0800,,1900,1900,1900,2000,1900,1800
"St. Leonhard-Strasse 39, 9000 St. Gallen, Switzerland",St. Leonhard-Strasse 39,9000,St.,Zürich,Switzerland,47.4219374,9.3700459,4.3,408,ALDI SUISSE,ChIJDa_VlVUfm0cRmXblZ0jwg48,,0730,0730,0730,0730,0730,0730,,2000,2000,2000,2000,2000,2000
"Zürcherstrasse 462, 9015 St. Gallen, Switzerland",Zürcherstrasse 462,9015,St.,Zürich,Switzerland,47.408303,9.305735,4.3,191,ALDI SUISSE,ChIJj9HeP0LgmkcRZ8rdyu-ISz0,,0900,0900,0900,0900,0900,0900,,1900,1900,1900,2100,1900,1700
"Fürstenlandstrasse 149, 9014 St. Gallen, Switzerland",Fürstenlandstrasse 149,9014,St.,Zürich,Switzerland,47.4105792,9.3378588,4.3,528,ALDI,ChIJUcFKpyfgmkcRdYFd44Lm9lg,,0730,0730,0730,0730,0730,0730,,1900,1900,1900,2000,1900,1700
"Lerchentalstrasse 14, 9016 St. Gallen, Switzerland",Lerchentalstrasse 14,9016,St.,Zürich,Switzerland,47.4433547,9.4168712,4.2,464,ALDI,ChIJAak44JAem0cRHdAUk1bLRqk,,0730,0730,0730,0730,0730,0730,,1900,1900,1900,2000,1900,1700
"Rue Antoine-Carteret 22, 1202 Genève, Switzerland",Rue Antoine-Carteret 22,1202,Genève,Vaud,Switzerland,46.2125388,6.1338134,4.2,689,ALDI,ChIJO6ECY9tkjEcRgF38tHwXhIs,,0800,0800,0800,0800,0800,0800,,1900,1900,1900,2100,1930,1800
"Prom. de l'Europe 11, 1203 Genève, Switzerland",Prom. de l'Europe 11,1203,Genève,Vaud,Switzerland,46.2082281,6.124303899999999,4.3,355,ALDI,ChIJnarUzZFljEcR_ihT-Eh5NKU,,0800,0800,0800,0800,0800,0800,,1900,1900,1900,1930,1930,1800
"Rue du Grand Bay 21, 1220 Vernier, Switzerland",Rue du Grand Bay 21,1220,Vernier,Vaud,Switzerland,46.2210364,6.1092743,4.0,549,ALDI,ChIJ9XFbAplkjEcR4kxrQsTyOQw,,0800,0800,0800,0800,0800,0800,,1900,1900,1900,2000,1900,1800
"Rte de Chancy 71, 1213 Petit-Lancy, Switzerland",Rte de Chancy 71,1213,Petit-Lancy,Vaud,Switzerland,46.187067,6.111350000000001,4.0,438,ALDI SUISSE,ChIJTYqE9kZ7jEcRzv7rilX4XLI,,0800,0800,0800,0800,0800,0800,,1900,1900,1900,1930,1930,1800
"Alte Steinhauserstrasse 10, 6330 Cham, Switzerland",Alte Steinhauserstrasse 10,6330,Cham,Zug,Switzerland,47.1873752,8.4757201,4.2,656,ALDI SUISSE,ChIJG_aReJoAkEcRK9tuIEGLXPE,,0730,0730,0730,0730,0730,0730,,1900,1900,1900,1900,2100,1700
"Fbg Saint-Germain 2, 2900 Porrentruy, Switzerland",Fbg Saint-Germain 2,2900,Porrentruy,Jura,Switzerland,47.4164475,7.077144,4.3,117,ALDI SUISSE,ChIJIZbxagP3kUcRkDizh5fhhw8,,0800,0800,0800,0800,0800,0800,,1830,1830,1830,2000,1830,1700
"Rue du Stand 1, 2800 Delémont, Switzerland",Rue du Stand 1,2800,Delémont,Jura,Switzerland,47.3635186,7.3453133,4.0,435,ALDI SUISSE,ChIJdeCnKdLnkUcRzZUvvS3Yki4,,0730,0730,0730,0730,0730,0730,,1830,1830,1830,2000,1830,1700
"Pleine-Eau 5, 2710 Tavannes, Switzerland",Pleine-Eau 5,2710,Tavannes,Bern,Switzerland,47.2156835,7.192976699999998,4.1,598,ALDI SUISSE,ChIJ75Ha0XodjkcRgkjccEayCLM,,0800,0800,0800,0800,0800,0800,,2000,2000,2000,2000,2000,1700
"St. Jakobs-Strasse 397, 4052 Basel, Switzerland",St. Jakobs-Strasse 397,4052,Basel,Basel-Stadt,Switzerland,47.5408958,7.619995899999999,4.4,15,ALDI SUISSE,ChIJlYFnDVi5kUcRkfNLCzvZPe0,,0900,0900,0900,0900,0900,0900,,2000,2000,2000,2000,2000,1800
"Länggasse 47, 1796 Gurwolf, Switzerland",Länggasse 47,1796,Gurwolf,Fribourg,Switzerland,46.9177619,7.1081611,4.2,435,ALDI SUISSE Gurwolf,ChIJ4YMgdSxpjkcR-ilJh3FR8Qk,,0730,0730,0730,0730,0730,0730,,1900,1900,1900,1900,2100,1600
"Bellacherstrasse 4, 4513 Langendorf, Switzerland",Bellacherstrasse 4,4513,Langendorf,Solothurn,Switzerland,47.2163627,7.513241299999999,4.1,370,ALDI SUISSE,ChIJJ9eqFhPYkUcRJ0kXs06Qu20,,0800,0800,0800,0800,0800,0800,,1830,1830,1830,1830,2000,1800
"Oberdorfstrasse 9, 6340 Baar, Switzerland",Oberdorfstrasse 9,6340,Baar,Zug,Switzerland,47.19634260000001,8.530022800000001,4.1,382,ALDI SUISSE,ChIJ_clCPzGqmkcRRdhrQ7H2Jxg,,0730,0730,0730,0730,0730,0730,,1900,1900,1900,1900,2000,1700
"Zugerstrasse 66, 6403 Küssnacht, Switzerland",Zugerstrasse 66,6403,Küssnacht,Uri,Switzerland,47.1072463,8.4502211,4.2,582,ALDI Küssnacht am Rigi,ChIJz0qlsZr_j0cRokPVOTJcoSw,,0730,0730,0730,0730,0730,0730,,2000,2000,2000,2100,2100,2000
"Kägiswilerstrasse 39, 6060 Sarnen, Switzerland",Kägiswilerstrasse 39,6060,Sarnen,Obwalden,Switzerland,46.90593630000001,8.256004800000001,4.2,455,ALDI SUISSE,ChIJw7BsjjLyj0cRaut0FHnieW4,,0730,0730,0730,0730,0730,0730,,2000,2000,2000,2000,2000,1800
"Av. de la Gare 22, 1700 Fribourg, Switzerland",Av. de la Gare 22,1700,Fribourg,Fribourg,Switzerland,46.8033966,7.153619499999999,4.2,133,ALDI SUISSE Fribourg,ChIJz79xmWJpjkcRaXyMmBA7n3s,,0830,0830,0830,0830,0830,0800,,1900,1900,1900,1900,2000,1600
"Gätzlistrasse 9, 6440 Ingenbohl, Switzerland",Gätzlistrasse 9,6440,Ingenbohl,Uri,Switzerland,47.00270279999999,8.620789799999997,4.4,462,ALDI SUISSE,ChIJSUAJnE1RhUcRFYwLGHjfC3s,,0730,0730,0730,0730,0730,0730,,2000,2000,2000,2000,2100,2000
"Zugerstrasse 1, 8805 Richterswil, Switzerland",Zugerstrasse 1,8805,Richterswil,Zürich,Switzerland,47.2050777,8.706696400000002,4.3,290,ALDI,ChIJ0cFNXvKxmkcRi7aSxoodR7g,,0800,0800,0800,0800,0800,0800,,2000,2000,2000,2000,2000,2000
"Firststrasse 19, 8835 Feusisberg, Switzerland",Firststrasse 19,8835,Feusisberg,Zürich,Switzerland,47.1898888,8.7400171,4.3,605,ALDI,ChIJwxhWMNezmkcRSU4vv_CDxGA,,0730,0730,0730,0730,0730,0730,,2000,2000,2000,2000,2000,2000
"Cilanderstrasse 10, 9100 Herisau, Switzerland",Cilanderstrasse 10,9100,Herisau,Zürich,Switzerland,47.3872943,9.2741128,4.3,544,ALDI SUISSE,ChIJ72_exinemkcRUo_a_8V8c5I,,0730,0730,0730,0730,0730,0730,,2000,2000,2000,2000,2000,2000
"Knotternstrasse 4, 9423 Thal, Switzerland",Knotternstrasse 4,9423,Thal,Zürich,Switzerland,47.4845118,9.547466,4.1,554,ALDI SUISSE,ChIJndF-KIgam0cRJuibE7qQsTE,,0730,0730,0730,0730,0730,0730,,1900,1900,1900,1900,2000,1700
"Wilerstrasse 82, 9200 Gossau, Switzerland",Wilerstrasse 82,9200,Gossau,Zürich,Switzerland,47.4182601,9.2359282,4.2,512,ALDI,ChIJRV9DfjHnmkcRclP3hC0Pk5U,,0730,0730,0730,0730,0730,0730,,1900,1900,1900,1900,2000,1700
"Oberrieterstrasse 85, 9450 Altstätten, Switzerland",Oberrieterstrasse 85,9450,Altstätten,Zürich,Switzerland,47.36423990000001,9.556320099999999,4.4,533,ALDI SUISSE,ChIJLaQdYmI9m0cRD7O5kMuFkfk,,0730,0730,0730,0730,0730,0730,,1900,1900,1900,1900,2000,1700
"Balgacherstrasse 205, 9435 Heerbrugg, Switzerland",Balgacherstrasse 205,9435,Heerbrugg,Zürich,Switzerland,47.4089423,9.623643200000002,4.3,449,ALDI SUISSE,ChIJm8lhAJAWm0cRsjNf9JWNR78,,0730,0730,0730,0730,0730,0730,,1900,1900,1900,1900,2000,1700
"Wilerstrasse 117, 9230 Flawil, Switzerland",Wilerstrasse 117,9230,Flawil,Zürich,Switzerland,47.4154613,9.1801654,3.9,15,ALDI SUISSE,ChIJy-L6-l_nmkcRW7Z7dRuv-wE,,0730,0730,0730,0730,0730,0730,,1900,1900,1900,1900,2000,1700
"Rietwisstrasse 11, 9630 Wattwil, Switzerland",Rietwisstrasse 11,9630,Wattwil,St. Gallen,Switzerland,47.2960729,9.092631800000001,4.2,378,ALDI,ChIJa9bCic_EmkcR6NSWoSsLBTY,,0730,0730,0730,0730,0730,0730,,1900,1900,1900,1900,2000,1700
"Säumergutstrasse 3, 8718 Schänis, Switzerland",Säumergutstrasse 3,8718,Schänis,Zürich,Switzerland,47.1553166,9.039966,4.3,375,ALDI SUISSE,ChIJ75tkk0HNhEcRSpvW2OrWBUg,,0730,0730,0730,0730,0730,0730,,1900,1900,1900,1900,2000,1700
"Stachelhofstrasse 4, 8854 Siebnen, Switzerland",Stachelhofstrasse 4,8854,Siebnen,Zürich,Switzerland,47.1753335,8.9123743,4.3,542,ALDI Siebnen,ChIJH3rOti7KmkcR2LtYGez-wV0,,0730,0730,0730,0730,0730,0730,,2000,2000,2000,2000,2000,2000
"Oberdorf 54, 8752 Näfels, Switzerland",Oberdorf 54,8752,Näfels,Zürich,Switzerland,47.0922969,9.0583172,4.2,575,ALDI,ChIJoRmJmrTSmkcReXyq0B5QDH8,,0730,0730,0730,0730,0730,0730,,2000,2000,2000,2000,2000,2000
"Hansmatt, 6370 Stans, Switzerland",Hansmatt,6370,Stans,Nidwalden,Switzerland,46.9677106,8.352157600000002,4.3,49,ALDI SUISSE,ChIJ5wN2suf3j0cRk4lt7RgwZOE,,0800,0800,0800,0800,0800,0800,,2000,2000,2000,2000,2000,1800
"Webergasse 34, 4058 Basel, Switzerland",Webergasse 34,4058,Basel,Basel-Stadt,Switzerland,47.5620687,7.592274199999999,4.1,487,ALDI SUISSE,ChIJo2JqCrC5kUcR0lfUAxDE2MA,,0800,0800,0800,0800,0800,0800,,2000,2000,2000,2000,2000,1800
"Türkheimerstrasse 4/6, 4055 Basel, Switzerland",Türkheimerstrasse 4/6,4055,Basel,Basel-Stadt,Switzerland,47.5574302,7.574834699999999,4.2,551,ALDI SUISSE,ChIJRWz_RQG5kUcRY10uuG31Jvk,,0800,0800,0800,0800,0800,0800,,2000,2000,2000,2000,2000,1800
"Dornacherstrasse 258, 4053 Basel, Switzerland",Dornacherstrasse 258,4053,Basel,Basel-Stadt,Switzerland,47.5403849,7.597770399999998,4.2,550,ALDI SUISSE,ChIJN4k-lEe4kUcRSIOIgvxBw7M,,0800,0800,0800,0800,0800,0730,,2000,2000,2000,2000,2000,1800
